UIN,Incident.month,Incident.year,Victim.injury,State,Location,Latitude,Longitude,Site.category,Site.category.comment,Shark.common.name,Shark.scientific.name,Shark.identification.method,Shark.identification.source,Shark.length.m,Basis.for.length,Provoked/unprovoked,Provocative.act,No.sharks,Victim.activity,Fish.speared?,Commercial.dive.activity,Object.of.bite,Present.at.time.of.bite,Direction.first.strike,Shark.behaviour,Victim.aware.of.shark,Shark.captured,Injury.location,Injury.severity,Victim.gender,Victim.age,Victim.clothing,Clothing.coverage,Dominant.clothing.colour,Other.clothing.colour,Clothing.pattern,Fin.colour,Diversionary.action.taken,Diversionary.action.outcome,People <3m,People 3-15m,Time.of.incident,Depth.of.incident.m,Teeth.recovered,Time.in.water.min,Water.temperature.°C,Total.water.depth.m,Water.visability.m,Distance.to.shore.m,Spring.or.neap.tide,Tidal.cycle,Wind.condition,Weather.condition,Air.temperature.°C,Personal.protective.device,Deterrent.brand.and.type,Data.source,Reference,
1,1,1791,fatal,NSW,sydney (near),-33.86,151.2,coastal,,white shark,Carcharodon carcharias ,"bite analysis, shark behaviour, geographical location",,,,unprovoked,,,swimming,,,,,,,,,torso,major lacerations,female,,,,,,,,,,,,,0,,,,,,,,,,,,,,book,"shark&survl, whitley 1958, book ref 1793",
2,3,1803,injured,WA,"shark bay, faure island",-25.8826,113.9226,coastal,bay to open ocean,tiger shark,Galeocerdo cuvier ,"bite analysis, shark behaviour, geographical location",,,,unprovoked,,1,swimming,,,,,,swam at victim,Y,,,,male,,,,,,,,pushed at shark,,,,,0,,1,,,,,,,,,,,,book,"balgridge,green,taylor,whitley 1940",
3,1,1807,injured,NSW,"sydney harbour, cockle bay",-33.8661,151.201,estuary/harbour,bay,bull shark,Carcharhinus leucas,"bite analysis, shark behaviour",,,,unprovoked,,1,swimming,,,,,,bit victim on wrist,,,"arm, hand",minor lacerations,male,,,,,,,,,,,,,,,,,,,,,,,,,,,media outlet,sydney gazette 18.1.1807,
4,1,1820,fatal,TAS,"sweetwater point, pitt water",-42.8025,147.4868,estuary/harbour,bay to open ocean,,,,,,,provoked,,1,swimming,,,,catch,,bit victim on leg,N,,leg,major lacerations,male,,,,,,,,,,,,,1,,,,,,100,,,,,,,,witness account,"shark&survl, c. black researcher",
5,1,1825,injured,NSW,"sydney harbour, kirribili point",-33.8527,151.2188,estuary/harbour,harbour,bull shark,Carcharhinus leucas,"bite analysis, shark behaviour, geographical location",,,,unprovoked,,1,swimming,,,,,,bit legs,,,leg,minor lacerations,male,15,,,,,,,,,,,,,,,,,,,,,,,,,,media outlet,maitland daily mercury 13.11.1899,
6,1,1830,injured,TAS,bruny island,-43.3457,147.3228,island open ocean,open ocean,white shark,Carcharodon carcharias ,"bite analysis, shark behaviour, geographical location",,,,unprovoked,,1,swimming,,,,,,bit victim on arms,,,arm,major lacerations,female,,,,,,,,,,,,,,,,,,,,,,,,,,,media outlet,the mercury 7.3.1923,
7,1,1832,injured,NSW,"sydney harbour, blackwattle bay",-33.8732,151.1867,estuary/harbour,harbour,bull shark,Carcharhinus leucas,"bite analysis, shark behaviour, geographical location",,,,provoked,,,swimming,,,,abbatoir,,bit victim on leg,,,leg,minor lacerations,male,,,,,,,,,,,,,,,,,,,,,,,,,,,media outlet,smh 23.1.1832,
8,6,1832,injured,NSW,"sydney harbour, south head",-33.8329,151.2797,coastal,bay to open ocean,white shark,Carcharodon carcharias ,"bite analysis, shark behaviour, geographical location",,,,provoked,enticed shark,1,fishing,,,,,,bit victim on leg,,,leg,major lacerations,female,,,,,,,,,,,,,,,,,,,,,,,,,,,media outlet,sydney herald 11.6.1832,
9,1,1836,injured,SA,"adelaide, holdfast bay",-34.9996,138.5098,coastal,,white shark,Carcharodon carcharias ,"bite analysis, shark behaviour, geographical location",,,,unprovoked,,,swimming,,,,,,,N,,,,male,,,,,,,,,,,,,,,,,,,,,,,,,,,book,sharpe     date?,
10,8,1836,fatal,QLD,fraser island to inskip point,-25.7989,153.0476,coastal,,whaler shark,Carcharhinidae,geohraphical location,,,,unprovoked,,1,swimming,,,,,,bit victim on body,,,other: body not recovered,,male,,,,,,,,,,,,,,,,,,,,,,,,,,,book,"shipwrecks, evan mchugh",
11,8,1836,fatal,QLD,fraser island to inskip point,-25.7989,153.0476,coastal,,whaler shark,Carcharhinidae,geohraphical location,,,,unprovoked,,1,swimming,,,,,,bit victim on body,,,other: body not recovered,,male,,,,,,,,,,,,,,,,,,,,,,,,,,,book,"shipwrecks, evan mchugh",
12,1,1837,fatal,NSW,macleay river,-31.0088,152.7122,river,,bull shark,Carcharhinus leucas,"bite analysis, shark behaviour, geographical location",,,,unprovoked,,1,swimming,,,,,,bit victim on leg,,,leg,major lacerations,male,12,,,,,,,,,,,,1,,,,,,1,,,,,,,,media outlet,"green,baldridge, colonial times 14.2.1837",
13,8,1839,fatal,VIC,"wilsons promontory, sealers cove",-39.0185,146.4375,coastal,,white shark,Carcharodon carcharias ,"bite analysis, shark behaviour",,,,provoked,,1,swimming,,Y,,"catch, dead animal nearby (whale), swimming",,bit legs,,,leg,major lacerations,male,,,,,,,,,,,,,0,,3,,,,50,,,,,,,,media outlet,colonial times 20.8.1839,
14,12,1840,fatal,NSW,"sydney harbour, woolloomooloo bay",-33.8613,151.2266,estuary/harbour,bay,bull shark,Carcharhinus leucas,"bite analysis, shark behaviour, geographical location",,,,unprovoked,,1,swimming,,,,dead animal nearby (whale),,,,,leg,major lacerations,male,,,,,,,,,,,,,,,,,,,,,,,,,,,media outlet,cairns post 13.2.1919,
15,4,1841,fatal,NSW,"sydney harbour, cockatoo island",-33.846,151.1719,estuary/harbour,bay,bull shark,Carcharhinus leucas,"bite analysis, shark behaviour, geographical location",,,,unprovoked,,1,swimming,,,,swimming,,bit victim on leg,,,thigh,major lacerations,male,,,,,,,,,,,,,0,,,,,,12,,,,,,,,media outlet,the sydney herald 27.4.1841,
16,3,1847,injured,QLD,moreton bay,-27.25,153.25,coastal,,bull shark,Carcharhinus leucas,"bite analysis, shark behaviour, geographical location",,,,unprovoked,,,swimming,,,,,,,,,foot,major lacerations,male,,,,,,,,,,,,,,,,,,,,,,,,,,,media outlet,"green, whitley 1958, the queenslander 12.3.1921",
17,11,1847,injured,QLD,brisbane river,-27.4454,153.0847,river,,bull shark,Carcharhinus leucas,"bite analysis, shark behaviour, geographical location",,,,unprovoked,,1,swimming,,,,,other: side,bit victim onleg - thigh,Y,,"thigh, calf",major lacerations,male,,,,,,,,hit at shark,,,,,0,,2,,,,5,,,,,,,,media outlet,"morton bay courrier 4.12.1847, maitland mercury 15.12.1847",
18,1,1849,fatal,WA,"dunsborough, castle rock, quindalup",-33.5929,115.1035,ocean/pelagic,open ocean,white shark,Carcharodon carcharias ,"shark behaviour, geographical location",,,,provoked,enticed shark,1,swimming,,Y,,dead animal nearby (whale),,,,,,,male,,,,,,,,,,,,,0,,,,,,,,,,,,,,media outlet,bunbury herald 7.6.1849,
19,12,1849,injured,VIC,portland,-38.3464,141.6111,coastal,,white shark,Carcharodon carcharias ,"shark behaviour, geographical location",,,,unprovoked,,1,swimming,,,,,,bit leg,,,leg,other: teeth marks,male,,,,,,,,,,,,,,,,,,,,,,,,,,,media outlet,portland guardian 1.12.1874,
20,12,1849,fatal,NSW,"sydney harbour, woolloomooloo bay",-33.8613,151.2266,estuary/harbour,bay,bull shark,Carcharhinus leucas,"bite analysis, shark behaviour, geographical location",,,,unprovoked,,1,swimming,,,,,below,bit victim on body,N,,thigh,major lacerations,male,,,,,,,,hit shark with paddle,,,,,,,,,,,40,,,,,,,,media outlet,smh 3.12.1849,
21,1,1850,fatal,QLD,moreton bay,-27.2833,153.2167,coastal,,tiger shark,Galeocerdo cuvier ,"bite analysis, shark behaviour, geographical location",,,,unprovoked,,1,swimming,,,,boating,,bit victim,,,other: body not recovered,,male,,,,,,,,,,,,,0,,,,,,,,,,,,,,media outlet,the queenslander 6.2.1909,
22,3,1850,injured,NSW,"yamba, clarence head",-29.4216,153.3654,coastal,,whaler shark,Carcharhinidae,"bite analysis, shark behaviour, geographical location",,,,unprovoked,,1,swimming,,,,swimming,,,,,,,male,,,,,,,,,,,,,,,,,,,,,,,,,,,media outlet,clarence & richmond examiner 8.11.1881,
23,11,1853,injured,NSW,sydney harbour,-33.85,151.22,estuary/harbour,bay,wobbegong,Orectolobidae,"bite analysis, shark behaviour, geographical location",,1,other: media report,provoked,,1,swimming,,,,,,bit leg,,,leg,minor lacerations,male,,,,,,,,,,,,,,,,,,,,,,,,,,,media outlet,empire 14.11.1853,
24,1,1855,injured,QLD,mary river,-25.4925,152.8189,river,,bull shark,Carcharhinus leucas,"bite analysis, shark behaviour, geographical location",,,,unprovoked,,1,swimming,,,,,,bit victims leg off,,,leg,major lacerations,female,,,,,,,,,,,,,,,,,,,,,,,,,,,media outlet,capricornian 15.9.1923,
25,1,1855,uninjured,NSW,"sydney harbour, woolloomooloo bay",-33.8613,151.2266,estuary/harbour,bay,bull shark,Carcharhinus leucas,"shark behaviour, geographical location",,,,unprovoked,,1,swimming,,,,,,swam towards victim,Y,,other: uninjured,,male,,,,,,,,,,,,,,,,,,,,,,,,,,,media outlet,evening news 6.1.1915,
26,7,1855,fatal,QLD,"torres strait, keriri (hammond island)",-10.5545,142.2197,island open ocean,,tiger shark,Galeocerdo cuvier ,"bite analysis, shark behaviour, geographical location",,,,unprovoked,,1,swimming,,,,,,bit victim on torso,,,torso,major lacerations,male,,,,,,,,,,,,,,,,,,,,,,,,,,,media outlet,freemans journal 25.8.1855,
27,11,1855,fatal,NSW,"sydney harbour, millers point",-33.8567,151.2001,estuary/harbour,bay,bull shark,Carcharhinus leucas,"bite analysis, shark behaviour, geographical location",,,,unprovoked,,1,swimming,,,,,below,bit victim from below,,,leg,major lacerations,male,,,,,,,,,,,1,,,,4,,,,,,,,,,,,media outlet,the maitland mercury 14.11.1855,
28,2,1856,injured,VIC,"port phillip bay, point henry",-38.1291,144.4419,coastal,bay,white shark,Carcharodon carcharias ,"bite analysis, shark behaviour, geographical location",,,,unprovoked,,1,swimming,,,,,below,bit victim on leg,,,"thigh, foot",major lacerations,male,18,,,,,,,kick at shark with other foot,,,,2100,0,,1,,,,,,,,,,,,media outlet,the argus 16.2.1856,
29,5,1856,injured,SA,"port elliot, horseshoe bay",-35.5345,138.6846,coastal,,wobbegong,Orectolobidae,"bite analysis, shark behaviour, geographical location",,,,unprovoked,,1,,,,,,,,,,,,male,,,,,,,,,,,,,,,,,,,,,,,,,,,media outlet,the register sa 24.5.1906,
30,3,1858,fatal,VIC,"port phillip bay, williamstown, hobsons bay",-37.8613,144.9049,coastal,bay,white shark,Carcharodon carcharias ,"bite analysis, shark behaviour, geographical location",,,,unprovoked,,1,swimming,,,,,below,bit victim on leg,,,calf,major lacerations,male,22,,,,,,,,,,,1500,0,,,,,,,,,,,,,,media outlet,the argus 16.3.1858,
31,1,1860,injured,SA,"victor harbour, encounter bay",-35.5641,138.6129,coastal,,white shark,Carcharodon carcharias ,"bite analysis, shark behaviour, geographical location",,,,unprovoked,,,swimming,,,,,,,,,arm,major lacerations,male,,,,,,,,,,,,,,,,,,,,,,,,,,,media outlet,south australian chronicle 15.12.1894,
32,1,1861,injured,QLD,"moreton bay, cleveland",-27.5141,153.2881,coastal,,wobbegong,Orectolobidae,"bite analysis, shark behaviour, geographical location",,,,unprovoked,,1,swimming,,,,,,bit victim on hand,,,"arm, hand",minor lacerations,male,,,,,,,,,,,,,,,,,,,,,,,,,,,media outlet,moreton bay courier 15.1.1861,
33,2,1862,injured,VIC,"port phillip bay, geelong, huttons wharf",-38.1259,144.3587,coastal,bay,white shark,Carcharodon carcharias ,"bite analysis, shark behaviour, geographical location",,,,unprovoked,,1,swimming,,,,,,grazed leg with fin,Y,,leg,abrasion,male,,,,,,,,hit out at shark with arm,,,,,0,,5,,,,,,,,,,,,media outlet,geelong advertiser 19.2.1862,
34,12,1862,fatal,QLD,"brisbane river, brisbane",-27.4711,153.0529,river,,bull shark,Carcharhinus leucas,"shark behaviour, geographical location",,,,unprovoked,,1,swimming,,,,other: shot bird,,bit victim on torso,Y,,other: body not recovered,,male,,,,,,,,,,,,,0,,1,,,,10,,,,,,,,media outlet,the courier brisbane 19.12.1862,
35,1,1863,fatal,NSW,manning river,-31.9281,152.4482,river,,bull shark,Carcharhinus leucas,"bite analysis, shark behaviour, geographical location",,,,unprovoked,,1,swimming,,,,,,bit victim on right thigh,N,,thigh,major lacerations,male,17,,,,,,,,,,,,0,,,,,,,,,,,,,,media outlet,"green & whitley, sydney herald 21.1.1863",
36,1,1863,fatal,QLD,"moreton bay, victoria point",-27.5896,153.3163,coastal,,tiger shark,Galeocerdo cuvier ,"bite analysis, shark behaviour, geographical location",,,,provoked,enticed shark,1,swimming,,,,"catch, boating, other sealife (turtle/s)",,bit victim on legs,,,other: body not recovered,,male,,,,,,,,,,,,,,,,,,,,,,,,,,,media outlet,the queenslander 14.10.1916,
37,3,1863,injured,VIC,"port phillip bay, brighton bay",-37.9036,144.9833,coastal,bay,white shark,Carcharodon carcharias ,"bite analysis, shark behaviour, geographical location",,,,unprovoked,,1,swimming,,,,,,bit victim on torso,,,"torso, leg",major lacerations,male,,,,,,,,swam to shore,,,,2000,1,,5,,,,,,,,,,,,media outlet,argus 10.3.1863,
38,4,1863,fatal,QLD,"sunshine coast, caloundra heads",-26.7973,153.1495,coastal,surf beach,tiger shark,Galeocerdo cuvier ,"bite analysis, shark behaviour, geographical location",,,,unprovoked,,2,,,,,boating,,bit victim,,,other: body not recovered,,male,,,,,,,,,,,,,0,,5,,,,,,,,,,,,media outlet,brisbane courier 12.6.1880,
39,11,1865,fatal,VIC,"port phillip bay, williamstown",-37.8702,144.9086,coastal,bay,white shark,Carcharodon carcharias ,"bite analysis, shark behaviour, geographical location",,,,unprovoked,,,swimming,,,,,,,,,thigh,major lacerations,male,33,clothes,,,,,,,,,,,,,,,,,,,,,,,,,media outlet,argus 27.11.1865,
40,1,1868,injured,QLD,"yeppoon, nth keppel",-23.0859,150.8634,coastal,,tiger shark,Galeocerdo cuvier ,"bite analysis, shark behaviour, geographical location",,,,unprovoked,,1,swimming,,,,,,bit victims leg off,,,leg,major lacerations,male,,,,,,,,,,,,,,,,,,,,,,,,,,,media outlet,capricornian 1.12.1923,
41,1,1869,injured,QLD,"brisbane river, milton reach",-27.4694,153.0106,river,,bull shark,Carcharhinus leucas,"bite analysis, shark behaviour, geographical location",,,,unprovoked,,1,swimming,,,,swimming,,bit leg,Y,,leg,other: teeth marks,male,,,,,,,,shook shark off leg,,,,,,,,,,,6,,,,,,,,media outlet,darling downs gazette 23.1.1869,
42,3,1869,injured,SA," port hughes, cape elizabeth",-34.1331,137.4526,coastal,,broadnose sevengill shark,Notorynchus cepedianus,,,2.2,other: media report,provoked,enticed shark,1,fishing,,Y,,"catch, fishing",,bit victim on foot,,Y,foot,minor lacerations,male,,,,,,,,,shark released victim permanently ,,,,1,,,,1,,,,,,,,,,media outlet,smh 23.3.1869,
43,1,1870,injured,QLD,"brisbane river, north quay",-27.4695,153.0191,river,,bull shark,Carcharhinus leucas,"bite analysis, shark behaviour, geographical location",,,,unprovoked,,1,swimming,,,,swimming,below,bit victim on leg,,,thigh,major lacerations,male,17,,,,,,,,,,,,0,,,,,,,,,,,,,,media outlet,the brisbane courier 10.1.1870,
44,5,1870,injured,QLD,moreton island,-27.1822,153.3709,coastal,,whaler shark,Carcharhinidae,shark behaviour,,,,provoked,,1,spearfishing,,,,"spearfishing, baitfish",,bit victim on leg,,,leg,minor lacerations,male,13,,,,,,,,,,,,0,,,,,,,,,,,,,,media outlet,the brisbane courier 26.5.1870,
45,1,1872,injured,QLD,"fraser island, off white cliffs",-25.3789,153.0335,coastal,,,,,,,,unprovoked,,1,swimming,,,,,,bit victim,,,,,male,,,,,,,,,,,,,,,,,,,,,,,,,,,media outlet,brisbane courier 9.1.1873,
46,2,1873,uninjured,SA,"adelaide, semaphore beach",-34.8393,138.4737,coastal,ocean beach,white shark,Carcharodon carcharias ,"bite analysis, shark behaviour, geographical location",,,,unprovoked,,1,unmotorised boating,,,Vessel,,below,bit canoe,,,other: uninjured,,male,,,,,,,,,,,,,,,,,,,,,,,,,,,media outlet,smh 17.2.1873,
47,1,1874,injured,NSW,"sydney harbour, darling harbour ",-33.8644,151.2021,estuary/harbour,bay,bull shark,Carcharhinus leucas,"shark behaviour, geographical location",,,,unprovoked,,1,swimming,,,,,,bit victim on leg,,,"calf, foot",major lacerations,male,,,,,,,,,,,,,0,,1,,,,,,,,,,,,media outlet,"sharks & survival, the argus 14.1.1874",
48,11,1874,injured,QLD,"mary river, maryborough",-25.5428,152.7142,river,,bull shark,Carcharhinus leucas,"bite analysis, shark behaviour, geographical location",,3,bite radius estimation,unprovoked,,1,swimming,,,,,,bit victim on leg,,,thigh,other: teeth marks,male,,,,,,,,,,,,,,,,,,,,,,,,,,,media outlet,maitland murcury 10.12.1874,
49,11,1874,injured,NSW,"newcastle, redhead beach",-33.0147,151.7198,coastal,,wobbegong,Orectolobidae,"bite analysis, shark behaviour, geographical location, direct observation",,2,,provoked,,1,swimming,,,,,,bit victim on foot,,Y,foot,minor lacerations,male,,,,,,,,,,,,1900,,,,,,,,,,,,,,,media outlet,maitland murcury 24.11.1874,
50,7,1875,injured,NSW,"yamba, clarence river",-29.4307,153.3573,river,,tiger shark,Galeocerdo cuvier ,"bite analysis, shark behaviour, geographical location",,,,unprovoked,,1,swimming,,,,swimming,,bit victim,,,,major lacerations,male,,,,,,,,,,,,,0,,,,,,,,,,,,,,media outlet,richmand river herald 9.12.1932,
51,10,1875,fatal,QLD,"torres strait, unknown pearl beds",-10.45,142.39,island open ocean,,tiger shark,Galeocerdo cuvier ,"bite analysis, shark behaviour, geographical location",,,,provoked,,1,snorkelling,,Y,,,,bit victim on leg,,,leg,major lacerations,male,,,,,,,,,,,,,,,,,,,,,,,,,,,media outlet,brisbane courier 18.8.1877,
52,11,1875,injured,NSW,"yamba, clarence river heads, lluka beach",-29.4216,153.3654,coastal,,white shark,Carcharodon carcharias ,"bite analysis, shark behaviour, geographical location",,,,provoked,enticed shark,1,swimming,,,,catch,,bit foot,,,foot,major lacerations,male,,,,,,,,,,,,,0,,1,,,,,,,,,,,,media outlet,brisbane courier 27.11.1875,
53,12,1875,injured,NSW,"yamba, clarence river, grafton",-29.6979,152.9442,river,,bull shark,Carcharhinus leucas,"bite analysis, shark behaviour, geographical location",,,,unprovoked,,1,swimming,,,,,,bit leg,,,leg,minor lacerations,male,,,,,,,,,,,,,0,,,,,,,,,,,,,,media outlet,newcastle chronicle 8.1.1876,
54,1,1876,injured,WA,port walcott & de grey river,-20.7,117.25,river,,bull shark,Carcharhinus leucas,"bite analysis, shark behaviour, geographical location",,,,provoked,,,snorkelling,,Y,,,,bit victim on leg,N,,thigh,major lacerations,male,36,,,,,,,,,,,,,,,,,,,,,,,,,,media outlet,"green, whitely, the advertiser 11.1.1940",
55,1,1876,injured,VIC,"port phillip bay, st kilda beach",-37.8662,144.9717,coastal,bay,white shark,Carcharodon carcharias ,"bite analysis, shark behaviour, geographical location",,,,unprovoked,,1,swimming,,,,abbatoir,,,,,,,male,,,,,,,,,,,,,,,,,,,,,,,,,,,media outlet,the argus 5.2.1876,
56,2,1876,fatal,QLD,"torres strait, unknown pearl beds",-10.45,142.39,island open ocean,,tiger shark,Galeocerdo cuvier ,"bite analysis, shark behaviour, geographical location",,,,provoked,,1,snorkelling,,Y,,,,bit victim in half,,,torso,major lacerations,male,,,,,,,,,,,,,,,,,,,,,,,,,,,media outlet,brisbane courier 18.8.1877,
57,2,1876,fatal,VIC,"port phillip bay, albert park pier",-37.8505,144.9499,coastal,bay,white shark,Carcharodon carcharias ,,researcher,4,,unprovoked,,1,swimming,,,,"swimming, other sealife",,bit victim on leg,N,,"leg, pelvic region",major lacerations,male,18,,,,,,,,,,,0600,,,2,,,,,,,,,,,,media outlet,the age 7.2.1876,
58,7,1876,uninjured,NSW,"sydney harbour, dawse point battery",-33.8537,151.2088,estuary/harbour,harbour,whaler shark,Carcharhinidae,"bite analysis, shark behaviour, geographical location",,4.3,witness/victim,provoked,,1,diving,,Y,,other: metal helmet,,circled diver,,,other: uninjured,,male,,,,,,,,pushed at shark with shovel,shark released victim permanently ,,,,,,,,,,,,,,,,other: shovel,,media outlet,evening news 7.7.1876,
59,12,1876,injured,NSW,"newcastle, paterson river",-32.7174,151.6441,estuary/harbour,,bull shark,Carcharhinus leucas,"bite analysis, shark behaviour, geographical location",,,,unprovoked,,1,swimming,,,,swimming,,bit victim on leg,,,leg,major lacerations,male,,,,,,,,,,,,,,,,,,,,,,,,,,,media outlet,maitland mercury 11.8.1877,
60,1,1877,fatal,VIC,"port phillip bay, emerald hill, south melbourne",-37.8515,144.9518,coastal,bay,white shark,Carcharodon carcharias ,"bite analysis, shark behaviour, geographical location",,,,unprovoked,,1,swimming,,,,,,,,,,major lacerations,male,30,,,,,,,,,,,,,,,,,,,,,,,,,,media outlet,the argus 1.2.1877,
61,1,1877,injured,VIC,"port fairy, boarding school bay",-38.3931,142.2304,coastal,surf beach,white shark,Carcharodon carcharias ,"bite analysis, shark behaviour, geographical location",,,,unprovoked,,1,swimming,,,,swimming,,bit victim on foot,Y,,foot,minor lacerations,female,,,,,,,,,,,,,0,,,,,,,,,,,,,,media outlet,the argus 24.1.1877,
62,3,1877,injured,VIC,"port phillip bay, portarlington",-38.1124,144.6505,coastal,bay,white shark,Carcharodon carcharias ,"bite analysis, shark behaviour, geographical location",,,,unprovoked,,1,swimming,,,,,,bit victim on leg,,,"thigh, foot",major lacerations,male,,,,,,,,,,,,,,,,,,,,,,,,,,,media outlet,the argus 27.3.1877,
63,12,1877,injured,NSW,"sydney harbour, balmain",-33.8532,151.1739,estuary/harbour,bay,bull shark,Carcharhinus leucas,"bite analysis, shark behaviour, geographical location",,,,unprovoked,,1,swimming,,,,,,bit victim on leg,,,leg,major lacerations,male,12,,,,,,,,,,,,,,,,,,,,,,,,,,media outlet,"green, shark&survul. smh 17.12.1877",
64,12,1877,injured,VIC,"melbourne, st kilda beach, red bluff",-37.9617,145.0102,coastal,bay,wobbegong,,shark behaviour,,1.2,witness/victim,provoked,,1,swimming,,,other animal in area,other: swimming with dog,,bit leg,,,leg,minor lacerations,male,,,,,,,,,,,,,,,,,,,120,,,,,,,,media outlet,northern argus 7.12.1877,
65,1,1878,injured,QLD,"torres strait, saibai island",-9.3809,142.6181,island open ocean,,tiger shark,Galeocerdo cuvier ,"bite analysis, shark behaviour, geographical location",,,,provoked,,1,snorkelling,,Y,,,,,,,,major lacerations,male,,,,,,,,,,,,,,,,,,,,,,,,,,,media outlet,maitland mercury & hunter valley advertiser 26.3.1878,
66,3,1878,injured,VIC,"warrnambool, hopkins river",-38.3932,142.5101,river,inlet from ocean,whaler shark,Carcharhinidae,"shark behaviour, geographical location",,3.2,witness/victim,unprovoked,,1,swimming,,,,,below,bit victim on back,,,torso,minor lacerations,male,,,,,,,,swam to shore,,,,,,,,,,,,,,,,,,,media outlet,the argus 7.3.1878,
67,7,1878,injured,QLD,fraser island to inskip point,-25.8051,153.0529,coastal,,bull shark,Carcharhinus leucas,"bite analysis, shark behaviour, geographical location",,,,provoked,enticed shark,1,fishing,,Y,Catch,"catch, fishing, baitfish",,bit victim on leg,Y,,calf,major lacerations,male,,,,,,,,,,,,,1,,,,,,,,,,,,,,media outlet,brisbane courier 26.7.1878,
68,11,1878,injured,NSW,"sydney harbour, iron cove",-33.8603,151.1626,estuary/harbour,bay,wobbegong,Orectolobidae,"bite analysis, shark behaviour, geographical location",,,,unprovoked,,1,swimming,,,,,,bit victim,,,,minor lacerations,male,,,,,,,,,,,,,,,,,,,,,,,,,,,media outlet,south australian register 19.11.1878,
69,6,1879,fatal,NSW,"sydney harbour, darling harbour ",-33.8644,151.2021,estuary/harbour,bay,bull shark,Carcharhinus leucas,"bite analysis, shark behaviour, geographical location",,,,unprovoked,,1,swimming,,,,,,bit legs,,,leg,major lacerations,male,,,,,,,,,,,,,,,,,,,,,,,,,,,media outlet,goulburn herald 23.6.1879,
70,11,1879,injured,NSW,"yamba, clarence river heads, lluka beach",-29.4216,153.3654,estuary/harbour,,white shark,Carcharodon carcharias ,"bite analysis, shark behaviour, geographical location",,,,unprovoked,,1,swimming,,,,swimming,,bit victim on leg,,,thigh,major lacerations,male,15,,,,,,,,,,,,1,,,,,,,,,,,,,,media outlet,maitland mercury & hunter river advertiser 20.11.1879,
71,1,1880,fatal,QLD,"cairns, fitzroy island",-16.9304,145.9878,island open ocean,,tiger shark,Galeocerdo cuvier ,"bite analysis, shark behaviour, geographical location",,,,unprovoked,,1,swimming,,,,,,bit victim in half,,,other: body not recovered,,male,,,,,,,,,,,,,0,,,,,,,,,,,,,,media outlet,morning bulletin rockhamton 2.3.1922,
72,1,1880,injured,NSW,"lake macquarie, dora creek",-33.0863,151.5021,estuary/harbour,,bull shark,Carcharhinus leucas,"bite analysis, shark behaviour, geographical location",,,,unprovoked,,1,swimming,,,,swimming,,bit victim on leg,,,foot,major lacerations,female,13,,,,,,,,,,,1700,1,,,,,,35,,,,,,,,media outlet,newcastle morning herald 5.1.1880,
73,1,1880,injured,QLD,"brisbane river, bremmer river, ipswich",-27.6104,152.7683,river,,bull shark,Carcharhinus leucas,"bite analysis, shark behaviour, geographical location",,,,unprovoked,,1,swimming,,,,,,bit leg,,,leg,minor lacerations,male,22,,,,,,,,,,,,,,,,,,,,,,,,,,media outlet,queensland times 13.1.1880,
74,11,1880,fatal,QLD,"brisbane river, kangaroo point",-27.4645,153.0353,river,,bull shark,Carcharhinus leucas,"bite analysis, shark behaviour, geographical location",,,,unprovoked,,1,swimming,,,,swimming,,bit victim on leg,N,,leg,major lacerations,male,15,,,,,,,,,,,1700,,,,,,,3,,,,,,,,witness account,"personal comm, the maitland mercury 11.12.1880",
75,1,1881,uninjured,NSW,"lake macquarie, pelican flat",-33.0719,151.6411,estuary/harbour,,bull shark,Carcharhinus leucas,"shark behaviour, geographical location",,3.5,,unprovoked,,1,swimming,,,,,,swam towards victims,,,other: uninjured,,female,,,,,,,,moved onto beach,,,,,,,,,,,,,,,,,,,media outlet,smh 20.1.1881,
76,1,1881,injured,QLD,"hervey bay, wide bay",-25.2819,152.8528,coastal,,tiger shark,Galeocerdo cuvier ,direct observation,witness/victim,,,unprovoked,,1,,,,,bait and/or berley,,bit victim on leg,,,foot,major lacerations,female,16,,,,,,,hit at shark,,,,,1,,,,,,,,,,,,,,media outlet,the queenslander 13.12.1919,
77,8,1881,injured,QLD,north queensland (unknown location),-19.1765,146.7015,coastal,other: reef,tiger shark,Galeocerdo cuvier ,"bite analysis, shark behaviour, geographical location",,,,provoked,,1,spearfishing,,,,spearfishing,,bit leg,,,leg,minor lacerations,male,,,,,,,,,,,,,,,,,,,,,,,,,,,media outlet,western champion 26.8.1881,
78,11,1881,fatal,NSW,"sydney harbour, rushcutters bay",-33.8742,151.2309,estuary/harbour,bay,bull shark,Carcharhinus leucas,"bite analysis, shark behaviour, geographical location",,,,unprovoked,,1,swimming,,,,,,bit victim,,,other: body not recovered,,male,,,,,,,,,,,,,,,,,,,,,,,,,,,media outlet,brisbane courier 15.11.1881,
79,12,1881,injured,QLD,"kolan river, bundaberg",-24.7317,152.1688,river,,bull shark,Carcharhinus leucas,"bite analysis, shark behaviour, geographical location",,,,unprovoked,,1,swimming,,,,,,bit  victim on arm,,,arm,major lacerations,male,,,,,,,,,,,,,,,,,,,,,,,,,,,media outlet,morning herald 6.12.1881,
80,1,1882,injured,WA,broome (area),-18.0138,122.2842,coastal,bay to open ocean,tiger shark,Galeocerdo cuvier ,"bite analysis, shark behaviour, geographical location",,,,provoked,,,snorkelling,,Y,,,,,,,,,male,,,,,,,,,,,,,,,,,,,,,,,,,,,media outlet,south australian register 3.3.1883,
81,4,1882,fatal,NSW,lake macquarie heads,-33.0864,151.6642,estuary/harbour,,white shark,Carcharodon carcharias ,"bite analysis, shark behaviour, geographical location",,,,unprovoked,,1,,,,,,,bit victim on torso,,,torso,,male,,,,,,,,,,,,,,,,,,,,,,,,,,,media outlet,smh 18.4.1882,
82,5,1882,injured,NSW,"sydney harbour, millers point",-33.8567,151.2001,coastal,bay,wobbegong,Orectolobidae,"bite analysis, shark behaviour, geographical location",,,,unprovoked,,1,swimming,,,,boating,behind,bit victim on leg,,,calf,minor lacerations,male,,,,,,,,,,,,,0,,1,,,,,,,,,,,,media outlet,the argus 16.5.1882,
83,5,1882,fatal,WA,broome area (ninety mile beach),-19.5249,121.1307,coastal,beach to open ocean,tiger shark,Galeocerdo cuvier ,"bite analysis, shark behaviour, geographical location",,,,provoked,,1,snorkelling,,Y,,fishing,,bit victim on torso,,,torso,major lacerations,male,,,,,,,,,,,,,,,,,,,,,,,,,,,media outlet,the west australian 12.5.1882,
84,12,1882,fatal,WA,broome (area),-18.0138,122.2842,coastal,bay to open ocean,tiger shark,Galeocerdo cuvier ,"bite analysis, shark behaviour, geographical location",,,,provoked,,1,snorkelling,,Y,,,,,,,,,male,,,,,,,,,,,,,,,,,,,,,,,,,,,media outlet,south australian register 3.3.1883,
85,1,1883,fatal,NSW,"sydney harbour, iron cove",-33.8603,151.1626,estuary/harbour,bay,bull shark,Carcharhinus leucas,"bite analysis, shark behaviour, geographical location",,,,unprovoked,,1,swimming,,,,,,bit victim on body,,,torso,major lacerations,male,37,,,,,,,,,,,,,,,,,,,,,,,,,,media outlet,smh 24.1.1883,
86,12,1883,fatal,NSW,"sydney harbour, blackwall, parramatta river",-33.8456,151.1419,estuary/harbour,bay,bull shark,Carcharhinus leucas,"bite analysis, shark behaviour, geographical location",,,,unprovoked,,1,swimming,,,,,,bit victim on body,,,torso,major lacerations,male,21,,,,,,,,,,,,0,,,,,,,,,,,,,,media outlet,smh 21.12.1883,
87,12,1883,uninjured,NSW,"sydney harbour, store beach, manly",-33.8123,151.2895,estuary/harbour,harbour beach,bull shark,Carcharhinus leucas,"bite analysis, shark behaviour, geographical location",,2.8,,provoked,,1,swimming,,,,other: swimming with horse,,swam towards victim & horse ,Y,,other: uninjured,,male,,,,,,,,moved onto beach,,,,,1,,,,,,,,,,,,,,media outlet,smh 24.12.1883,
88,1,1884,fatal,SA,port pirie,-33.1175,137.9766,coastal,,white shark,Carcharodon carcharias ,"bite analysis, shark behaviour, geographical location",,,,unprovoked,,2,swimming,,,,,,sharks pulled victim underwater,,,other: body not recovered,,female,16,,,,,,,,,,,,,,,,,,,,,,,,,,media outlet,"shark&survl, sa register 9.3.1885, the advertiser 23.1.1936",
89,10,1885,uninjured,NSW,"sydney harbour, parramatta river",-33.82,151.05,river,estuary,bull shark,Carcharhinus leucas,"shark behaviour, geographical location",,,,unprovoked,,1,swimming,,,,,,bit dress,,,other: uninjured,,female,,,,,,,,,,,,,0,,,,,,,,,,,,,,media outlet,evening news 5.10.1885,
90,11,1885,injured,WA,bunbury,-33.3152,115.6383,coastal,beach to open ocean,white shark,Carcharodon carcharias ,"bite analysis, shark behaviour, geographical location",,,,unprovoked,,1,swimming,,,,,,bit victim on leg,,,calf,major lacerations,male,,,,,,,,,,,,,,,,,,,,,,,,,,,media outlet,west australian 3.12.1885,
91,1,1886,uninjured,QLD,maryborough harbour,-25.5392,152.7071,river,,bull shark,Carcharhinus leucas,"shark behaviour, geographical location",,,,unprovoked,,1,swimming,,,,boating,,,,,other: uninjured,,male,,,,,,,,,,,,,,,,,,,,,,,,,,,media outlet,brisbane courier 27.1.1886,
92,4,1886,injured,QLD,"fitzroy river, rotheway bay",-23.3886,150.5639,river,,bull shark,Carcharhinus leucas,"shark behaviour, geographical location",,,,unprovoked,,1,swimming,,,,,,bit victim on wrist,,,"arm, hand",minor lacerations,male,,,,,,,,,,,,,,,,,,,,,,,,,,,media outlet,brisbane courier 4.5.1886,
93,2,1887,uninjured,NSW,"sydney harbour, manly wharf",-33.7993,151.2832,estuary/harbour,harbour beach,whaler shark,Carcharhinidae,"shark behaviour, geographical location",,,,unprovoked,,,unmotorised boating,,,,,,circled sunken boat,,,other: uninjured,,male,,,,,,,,,,,,1700,,,1,,,,400,,,windy,,,,,media outlet,smh 24.2.1887,
94,12,1887,fatal,NSW,"sydney harbour, ryde, parramatta river",-33.8223,151.0953,river,,bull shark,Carcharhinus leucas,"bite analysis, shark behaviour, geographical location",,4,witness/victim,unprovoked,,1,swimming,,,,other: swimming with dog,other: side,bit victim on body,,,"torso, leg, pelvic region",major lacerations,male,25,,,,,,,,,,,1130,,,,,,,,,High ,,,,,,media outlet,"green & whitley, smh 5.12.1887",
95,9,1888,injured,QLD,cooktown (gbr),-15.4343,145.4273,island open ocean,other: reef,tiger shark,Galeocerdo cuvier ,"bite analysis, shark behaviour, geographical location",,,,provoked,,,snorkelling,,Y,,,,,,,,,male,,,,,,,,,,,,,,,,,,,,,,,,,,,government report,cairns hostipal register 11.9.1911,
96,12,1888,fatal,NSW,"sydney harbour, iron cove bridge",-33.8603,151.1626,estuary/harbour,bay,bull shark,Carcharhinus leucas,"bite analysis, shark behaviour, geographical location",,,,unprovoked,,1,swimming,,,,swimming,,bit victim on torso,,,torso,major lacerations,male,11,,,,,,,,,,,,0,,,,,,,,,,,,,,media outlet,"green, smh 10.12.1888",
97,7,1889,fatal,VIC,port phillip bay heads,-38.3033,144.6155,ocean/pelagic,open ocean,white shark,Carcharodon carcharias ,"bite analysis, shark behaviour, geographical location",,,,unprovoked,,1,swimming,,,,,,bit victim,,,other: body not recovered,,male,,,,,,,,,,,,,0,,1,,,,,,,,,,,,media outlet,brisbane courier 9.7.1889,
98,1,1890,injured,TAS,"bridgewater, derwent river",-42.7383,147.2216,river,,broadnose sevengill shark,Notorynchus cepedianus,"bite analysis, shark behaviour, geographical location",,3,witness/victim,unprovoked,,1,swimming,,,,,,bit victim on leg,N,,thigh,major lacerations,male,,,,,,,,,,,,,,,,,,,,,,,,,,,media outlet,"whitely, chris black researcher",
99,4,1891,uninjured,NSW,tathra wharf,-36.7252,149.9889,coastal,beach to open ocean,wobbegong,Orectolobidae,"shark behaviour, geographical location",,,,provoked,victim intentionally hurt shark,1,diving,,Y,,other: metal helmet,,bit lead shoe,,,other: uninjured,,male,,wetsuit/drysuit,full body,,,,,,,,,,,,,,,,,,,,,,,,media outlet,richmond river herald 1.5.1891,
100,6,1891,injured,VIC,"torquay, point danger",-38.3409,144.3308,coastal,open ocean,wobbegong,Orectolobidae,"shark behaviour, geographical location",,2.1,witness/victim,provoked,physical contact,1,snorkelling,,Y,,,,swam towards diver,Y,Y,arm,minor lacerations,male,,,,,,,,grabbed shark around gills,,,,,,,,,,,,,,,,,,,media outlet,barnsdale advertiser 20.6.1891,
101,1,1892,fatal,QLD,"torres strait, badu island",-10.1692,142.1686,island open ocean,other: reef,tiger shark,Galeocerdo cuvier ,"shark behaviour, geographical location",,,,provoked,victim intentionally hurt shark,1,diving,,Y,,,,bit victim on torso,Y,,torso,major lacerations,male,,,,,,,,,,,,,,,,,,,,,,,,,,,book,"baldridge, shark&survl, whitley, aust woman's weekly 4.11.1944",
102,3,1892,injured,QLD,"rockhampton, fitzroy river",-23.3864,150.5223,river,,bull shark,Carcharhinus leucas,"bite analysis, shark behaviour, geographical location",,,,unprovoked,,1,swimming,,,,,below,bit victim on leg,,,calf,other: teeth marks,male,,,,,,,,,,,,,,,,,,,,,,,,,,,media outlet,brisbane courier 1.4.1892,
103,11,1892,injured,QLD,"moreton bay, wellington point",-27.4652,153.2432,coastal,,whaler shark,Carcharhinidae,"shark behaviour, geographical location",,,,unprovoked,,1,swimming,,,,,behind,bit victim on leg,,,leg,other: teeth marks,female,,,,,,,,,,,,,1,,,,1.5,,,,,,,,,,media outlet,brisbane courier 9.11.1892,
104,12,1892,injured,QLD,brisbane river,-27.4453,153.0837,river,,bull shark,Carcharhinus leucas,"bite analysis, shark behaviour, geographical location",,,,unprovoked,,1,swimming,,,,,,grazed leg,,,leg,abrasion,male,,,,,,,,,,,,,,,,,,,,,,,,,,,media outlet,camperdown cronical 6.2.1894,
105,1,1893,uninjured,WA,geraldton,-28.7774,114.5807,coastal,beach to open ocean,wobbegong,Orectolobidae,"shark behaviour, geographical location",,,,provoked,enticed shark,1,fishing,,,,"bait and/or berley, fishing",,bit trouser leg,,,other: uninjured,,male,,,,,,,,,,,,,1,,,,1,,,,,,,,,,media outlet,commercial news 7.1.1893,
106,1,1893,fatal,QLD,claremont isles national park,-13.9442,143.7429,ocean/pelagic,other: reef,tiger shark,Galeocerdo cuvier ,"bite analysis, shark behaviour, geographical location",,,,unprovoked,,1,swimming,,,,,,,,,other: body not recovered,,male,,,,,,,,,,,,,0,,,,,,,,,,,,,,media outlet,morning bulletin 25.2.1893,
107,4,1893,injured,QLD,"torres strait, muquar (cap islet)",-9.8359,142.7131,island open ocean,other: reef,tiger shark,Galeocerdo cuvier ,"bite analysis, shark behaviour, geographical location",,,,unprovoked,,1,swimming,,,,swimming,,bit victim on leg,,,leg,minor lacerations,male,,,,,,,,,,,,,0,,,,,,,,,,,,,,media outlet,the brisbane courier 2.6.1893,
108,11,1894,injured,NSW,newcastle beach,-32.9316,151.7848,coastal,,white shark,Carcharodon carcharias ,"bite analysis, shark behaviour, geographical location",,2,other: media report,unprovoked,,1,swimming,,,,swimming,,bit victim on arm,N,,arm,major lacerations,male,,,,,,,,hit shark on nose,,,,0740,2,,,,2,,25,,,,,,,,media outlet,miners advocate 1894.,
109,1,1895,uninjured,QLD,brisbane river,-27.4732,153.0213,river,,bull shark,Carcharhinus leucas,"bite analysis, shark behaviour, geographical location",,,,unprovoked,,1,unmotorised boating,,,Vessel,,,bit scull in 2 pieces,,,other: uninjured,,male,25,,,,,,,,,,,,0,,,,,,,,,,,,,,media outlet,smh 21.3.1930,
110,2,1895,fatal,NSW,"sydney harbour, leichhardt",-33.8715,151.1498,estuary/harbour,bay,bull shark,Carcharhinus leucas,"bite analysis, shark behaviour, geographical location",,3.5,,unprovoked,,1,swimming,,,,,,bit victim on leg ,N,,leg,major lacerations,male,16,,,,,,,,,,,1600,0,,,,,,,,,,,,,,media outlet,"green, shark&survl, brisbane courier 28.2.1895",
111,3,1895,injured,QLD,"burnett river, sharon",-24.8988,152.2363,river,,bull shark,Carcharhinus leucas,"bite analysis, shark behaviour, geographical location",,,,unprovoked,,1,swimming,,,,,,bit foot,,,foot,major lacerations,male,13,,,,,,,,,,,,,,,,,,,,,,,,,,media outlet,queensland times 21.3.1895,
112,6,1895,fatal,WA,barrow island,-20.7833,115.5333,island open ocean,open ocean,tiger shark,Galeocerdo cuvier ,"bite analysis, shark behaviour, geographical location",,,,provoked,,4,diving,,Y,,,,bit victim multiple times,,,other: body not recovered,,male,,,,,,,,,,,,,,,,,,,,,,,,,,,media outlet,the mercury 15.6.1895,
113,11,1895,fatal,NSW,"jervis bay, governors head",-35.1244,150.7647,coastal,bay to open ocean,whaler shark,Carcharhinidae,shark behaviour,,,,provoked,,3,swimming,,,,fishing,,bit victim on legs,Y,,other: body not recovered,,male,,,,,,,,,,,,,,,1,,,,,,,,,,,,media outlet,the brisbane courier 18.11.1895,
114,12,1895,uninjured,QLD,"torres strait, deliverance island ",-9.5215,141.5757,island open ocean,,tiger shark,Galeocerdo cuvier ,"shark behaviour, geographical location",,,,provoked,,1,diving,,Y,,,,bite to shoulder - dry suit,,,other: uninjured,,male,,,,,,,,,,,,,,,,,,,,,,,,,,,media outlet,northern territory & gazette 17.1.1896,
115,12,1895,fatal,NSW,"sydney harbour, iron cove bridge",-33.8603,151.1626,estuary/harbour,bay,bull shark,Carcharhinus leucas,"bite analysis, shark behaviour, geographical location",,4,witness/victim,unprovoked,,1,swimming,,,,,below,bit victim on body,,,torso,major lacerations,male,14,,,,,,,,,,,,0,,,,2,,20,,,,,,,,media outlet,smh 9.12.1895,
116,1,1896,fatal,NSW,"sydney harbour, pyrmont baths",-33.8635,151.1918,estuary/harbour,bay,bull shark,Carcharhinus leucas,"shark behaviour, geographical location",,,,unprovoked,,1,swimming,,,,,,bit victim on body,,,torso,major lacerations,male,11,,,,,,,,,,,,0,,,,,,,,,,,,,,media outlet,the west australian 14.1.1896,
117,11,1896,fatal,WA,esperance,-33.8684,121.9041,coastal,harbour,white shark,Carcharodon carcharias ,"bite analysis, shark behaviour, geographical location",,,,unprovoked,,1,swimming,,,,,,bit victim on legs,,,leg,,male,,,,,,,,,,,,,,,,,,,,,,,,,,,media outlet,kalgoorlie western argus 5.11.1896,
118,1,1897,injured,NSW,"macleay river, kempsey",-31.0826,152.8419,river,,bull shark,Carcharhinus leucas,"bite analysis, shark behaviour, geographical location",,1.8,witness/victim,unprovoked,,1,swimming,,,,,,bit thigh,,,thigh,minor lacerations,male,12,,,,,,,,,,,,,,,,,,,,,,,,,,media outlet,northern star 13.1.1897,
119,12,1897,injured,QLD,"torres strait, mabuiag island ",-9.9551,142.1941,island open ocean,,tiger shark,Galeocerdo cuvier ,"bite analysis, shark behaviour, geographical location",,,,unprovoked,,1,swimming,,,,,,,,,torso,major lacerations,male,,,,,,,,,,,,,,,,,,,,,,,,,,,media outlet,newcastle morning herald 29.12.1897,
120,9,1898,injured,NSW,"port stephens, nelson bay",-32.7184,152.1373,estuary/harbour,,bull shark,Carcharhinus leucas,"bite analysis, shark behaviour, geographical location",,,,provoked,enticed shark,1,fishing,,,,catch,,bit foot,,,foot,minor lacerations,male,,,,,,,,,,,,,1,,,,,,,,,,,,,,media outlet,evening news 27.12.1898,
121,12,1898,injured,QLD,"moreton bay, wellington point",-27.4781,153.2339,coastal,,whaler shark,Carcharhinidae,"bite analysis, shark behaviour, geographical location",,1.2,witness/victim,provoked,enticed shark,1,fishing,,Y,,"catch, fishing, baitfish",,bit thigh,Y,Y,thigh,minor lacerations,male,,,,,,,,,,,,,1,,1,,1,,,,,,,,,,media outlet,evening news 27.12.1898,
122,2,1899,injured,NSW,"sydney harbour, sugarloaf bay",-33.7948,151.2302,estuary/harbour,bay,bull shark,Carcharhinus leucas,"bite analysis, shark behaviour, geographical location",,,,unprovoked,,1,swimming,,,,,,bit thigh,,,thigh,minor lacerations,male,,,,,,,,,,,,,,,,,,,,,,,,,,,media outlet,albury banner & wodonga express 10.2.1899,
123,12,1899,injured,QLD,"moreton bay, tingalpa creek, near wynnum",-27.4853,153.1868,estuary/harbour,,bull shark,Carcharhinus leucas,"bite analysis, shark behaviour, geographical location",,,,unprovoked,,1,swimming,,,,,,bit leg,,,leg,minor lacerations,male,,,,,,,,,,,,,,,,,,,,,,,,,,,media outlet,brisbane courier 21.12.1899,
124,1,1900,injured,NSW,"sydney harbour, iron cove bridge",-33.8603,151.1626,estuary/harbour,bay,bull shark,Carcharhinus leucas,"bite analysis, shark behaviour, geographical location",,,,unprovoked,,1,swimming,,,,,,bit victim on leg,,,thigh,major lacerations,male,,,,,,,,,,,,1200,1,,,,,,,,,,,,,,media outlet,smh 29.1.1900,
125,1,1900,injured,NT,melville island,-11.6,130.95,coastal,,tiger shark,Galeocerdo cuvier ,"bite analysis, shark behaviour, geographical location",,,,unprovoked,,,swimming,,,,,,bit arm,,,arm,major lacerations,male,,,,,,,,,,,,,,,,,,,,,,,,,,,media outlet,northern standard 31.3.1933,
126,9,1900,injured,QLD,townsville harbour,-19.2547,146.8225,estuary/harbour,,tiger shark,Galeocerdo cuvier ,"bite analysis, shark behaviour, geographical location",,,,unprovoked,,1,swimming,,,,,,bit victim on leg,,,calf,major lacerations,male,,,,,,,,,,,,2100,,,,,,,,,,,,,,,media outlet,brisbane courier 17.9.1900,
127,11,1900,fatal,QLD,"torres strait, unknown pearl beds",-10.45,142.39,island open ocean,,,,,,,,provoked,,,snorkelling,,Y,,,,,,,,,male,,,,,,,,,,,,,,,,,,,,,,,,,,,media outlet,brisbane courier 14.9.1901,
128,12,1900,fatal,NSW,"sydney harbour, folly point",-33.8185,151.2258,estuary/harbour,bay,bull shark,Carcharhinus leucas,"bite analysis, shark behaviour, geographical location",,,,unprovoked,,1,swimming,,,,swimming,,bit victim on leg,N,,leg,major lacerations,male,21,,,,,,,,,,1,,,,,,,,,,,,,,,,media outlet,smh 29.12.1900,
129,1,1901,injured,NT,melville island,-11.6,130.95,coastal,,tiger shark,Galeocerdo cuvier ,"bite analysis, shark behaviour, geographical location",,,,unprovoked,,,swimming,,,,,,bit victim on leg,,,leg,major lacerations,male,,,,,,,,,,,,,,,,,,,,,,,,,,,media outlet,northern standard 31.3.1933,
130,1,1901,fatal,QLD,"brisbane river, rowing club",-27.4686,153.0123,river,,bull shark,Carcharhinus leucas,"bite analysis, shark behaviour, geographical location",,,,unprovoked,,1,swimming,,,other animal in area,"swimming, other sealife (dolphins)",,bit victim on leg,,,thigh,major lacerations,male,13,,,,,,,,,,,,,,,,,,,,,,,,,,media outlet,the west australian 23.1.1901,
131,2,1901,injured,QLD,"cairns, barron river mouth",-16.8624,145.7621,river,,wobbegong,Orectolobidae,"bite analysis, shark behaviour, geographical location",,,,provoked,,1,swimming,,,,,,bit head,,,head,minor lacerations,male,,,,,,,,,,,,,,,,,,,,,,,,,,,media outlet,north queensland register 4.2.1901,
132,4,1901,injured,QLD,"torres strait, unknown pearl beds",-10.45,142.39,island open ocean,,tiger shark,Galeocerdo cuvier ,"bite analysis, shark behaviour, geographical location",,,,provoked,,,snorkelling,,Y,,,,bit victim on stomach,,,"torso, shoulder",major lacerations,male,,,,,,,,,,,,,,,,,,,,,,,,,,,media outlet,the advertiser 25.9.1901,
133,4,1901,injured,QLD,"torres strait, unknown pearl beds",-10.45,142.39,island open ocean,,tiger shark,Galeocerdo cuvier ,"bite analysis, shark behaviour, geographical location",,,,provoked,,,snorkelling,,Y,,,,bit victim on shoulder,,,torso,major lacerations,male,,,,,,,,,,,,,,,,,,,,,,,,,,,media outlet,the advertiser 25.9.1901,
134,12,1901,injured,QLD,"brisbane river, south brisbane cemetery",-27.4985,153.0226,river,,bull shark,Carcharhinus leucas,,other: report,2,,unprovoked,,1,swimming,,,,swimming,,bit victim on torso,,,"torso, leg, pelvic region",major lacerations,male,,,,,,,,hit shark with hands & feet,,,,1335,0,,,,,,,,,,,,,,media outlet,brisbane courier 1.12.1901,
135,1,1902,injured,QLD,"brisbane river, highgate hill",-27.4923,153.0172,river,,bull shark,Carcharhinus leucas,"bite analysis, shark behaviour, geographical location",,,,unprovoked,,1,swimming,,,,,,bit victim on legs,,,leg,major lacerations,male,16,,,,,,,,,,,1200,,,,,,,15,,,,,,,,media outlet,the brisbane courier 20.1.1902,
136,1,1902,injured,QLD,"moreton bay, wynnum south",-27.4447,153.1872,coastal,,whaler shark,Carcharhinidae,"bite analysis, shark behaviour, geographical location",,,,provoked,,1,swimming,,,other animal in area,other: swimming with horse,,grazed victim with fin,Y,,torso,abrasion,male,,,,,,,,,,,,,3,,,,3,,900,,,,,,,,media outlet,the brisbane courier 7.1.1902,
137,1,1903,fatal,NSW,"sydney harbour, lane cove river",-33.8015,151.1435,river,,bull shark,Carcharhinus leucas,"bite analysis, shark behaviour, geographical location",,3,witness/victim,unprovoked,,1,swimming,,,,snorkelling,"left, below",bit victim on leg,N,,leg,major lacerations,male,20,,,,,,,punched and kicked shark,,,2,1700,,,10,,,,,,,,,,,,media outlet,sydney morning herald 12.1.1903,
138,2,1903,uninjured,NSW,"tanja, middle lagoon",-36.6526,150.0058,estuary/harbour,,bull shark,Carcharhinus leucas,"shark behaviour, geographical location",,1.8,witness/victim,provoked,,1,fishing,,,,catch,,bit trouser leg,,,other: uninjured,,male,,,,,,,,,,,,,1,,,,,,,,,,,,,,media outlet,evening news 6.2.1903,
139,3,1903,fatal,QLD,logan river,-27.6962,153.1937,river,,bull shark,Carcharhinus leucas,"bite analysis, shark behaviour, geographical location",,,,unprovoked,,1,swimming,,,,,,bit victim on leg,,,leg,major lacerations,male,,,,,,,,,,,,,,,,,,,,,,,,,,,media outlet,the argus 16.3.1903,
140,5,1903,uninjured,NSW,kiama,-34.6767,150.8545,coastal,surf beach,whaler shark,Carcharhinidae,"bite analysis, shark behaviour, geographical location",,3,,provoked,,1,diving,,Y,,,,swam towards diver,Y,,other: uninjured,,male,,,,,,,,hit shark with spear,,,,,11,,,,,,10,,,,,,speargun,,media outlet,the mercury 9.5.1903,
141,3,1904,injured,QLD,"brisbane river, pinkenba",-27.4331,153.1159,river,,bull shark,Carcharhinus leucas,"bite analysis, shark behaviour, geographical location",,,,unprovoked,,1,swimming,,,,,,bit torso,,,torso,minor lacerations,male,,,,,,,,,,,,,0,,,,,,,,,,,,,,media outlet,queensland figaro 31.3.1904,
142,3,1905,injured,NSW,lismore - wilsons river,-28.8024,153.2819,river,,bull shark,Carcharhinus leucas,"bite analysis, shark behaviour, geographical location",,,,unprovoked,,1,swimming,,,,,,bit victim on leg,,,leg,minor lacerations,male,,,,,,,,,,,,,,,,,,,,,,,,,,,media outlet,the advertiser 31.3.1905,
143,12,1905,fatal,QLD,"torres strait, badu island",-10.1692,142.1686,island open ocean,,tiger shark,Galeocerdo cuvier ,"bite analysis, shark behaviour, geographical location",,,,provoked,enticed shark,1,snorkelling,,Y,,,,bit victim on leg,,,thigh,major lacerations,male,,,,,,,,,,,,,,,,,,,,,,,,,,,media outlet,northern miner 13.12.1905,
144,1,1906,fatal,NSW,"sydney, the moons, georges river",-33.9928,151.0344,river,,bull shark,Carcharhinus leucas,"bite analysis, shark behaviour, geographical location",,2,bite radius estimation,unprovoked,,1,swimming,,,,swimming,,bit victim on leg,N,,leg,major lacerations,male,33,,,,,,,,,,,1410,,,,,,,,,,,,,,,media outlet,"coppleson, smh 29.1.1906",
145,4,1906,fatal,QLD,lizard island,-14.6621,145.4309,island open ocean,,tiger shark,Galeocerdo cuvier ,"bite analysis, shark behaviour, geographical location",,,,unprovoked,,1,swimming,,,,,,bit victim on arms,,,arm,major lacerations,male,,,,,,,,hit at shark,,,,,,,,,,,,,,,,,,,media outlet,morning post 20.4.1906,
146,8,1906,fatal,QLD,"torres strait, mabuiag island ",-9.9551,142.1941,island open ocean,,tiger shark,Galeocerdo cuvier ,"bite analysis, shark behaviour, geographical location",,,,provoked,,1,snorkelling,,Y,,,,bit diver on torso,,,"arm, shoulder, torso",major lacerations,male,,,,,,,,,,,,,,,,,,,,,,,,,,,media outlet,maitland daily mercury 4.9.1906,
147,12,1906,uninjured,NSW,batemans bay,-35.7061,150.1789,coastal,inlet from ocean,wobbegong,Orectolobidae,"shark behaviour, geographical location",,,,unprovoked,,1,motorised boating,,,,,,bit clothing - pants,,,other: uninjured,,male,,,,,,,,,,,,,1,,,,,,,,,,,,,,media outlet,barrier miner 19.12.1906,
148,2,1907,fatal,QLD,"townsville, ross creek",-19.2607,146.8183,estuary/harbour,,bull shark,Carcharhinus leucas,"bite analysis, shark behaviour, geographical location",,3.2,witness/victim,unprovoked,,1,swimming,,,other animal in area,other sealife (dolphins),,bit victim from below,,,,major lacerations,male,,,,,,,,,,,,,,,,,,,,,,,,,,,media outlet,brisbane courier 4.2.1907,
149,8,1907,injured,WA,"houtman abrolhos, murray island ",-28.8977,113.9002,island open ocean,other: reef,tiger shark,Galeocerdo cuvier ,"bite analysis, shark behaviour, geographical location",,,,provoked,,1,snorkelling,,Y,,,,bit victim on legs,,,leg,major lacerations,male,,,,,,,,,,,,,0,,,,,,,,,,,,,,media outlet,cairns post 7.8.1907,
150,10,1907,injured,NSW,"newcastle, merewether beach",-32.9468,151.7596,coastal,,white shark,Carcharodon carcharias ,"bite analysis, shark behaviour, geographical location",,1.8,,unprovoked,,1,swimming,,,,,,bit victim on arm,N,,"torso, shoulder",major lacerations,male,26,,,blue,,,white,,,,,1000,,,,,,,40,,,,,,,,media outlet,"northern district surf lifesaver, the argus 14.10.1907",
151,12,1907,fatal,NSW,"sydney harbour, sugarloaf bay",-33.7948,151.2302,estuary/harbour,,bull shark,Carcharhinus leucas,"bite analysis, shark behaviour, geographical location",,,,unprovoked,,1,swimming,,,,,,bit victim on body,N,,torso,major lacerations,male,,,,,,,,,,,,,,,,,,,20,,,,,,,,media outlet,"smh 23.12.1907, advertiser 23.12.1907",
152,1,1909,injured,NSW,"central coast, woy woy, brisbane waters",-33.4835,151.3255,estuary/harbour,,bull shark,Carcharhinus leucas,"shark behaviour, geographical location",,,,unprovoked,,,swimming,,,,,,,,,,,male,,,,,,,,,,,,,,,,,,,,,,,,,,,book,"sharks & survival p.523, lone hand magazine 1.12.1909",
153,1,1910,fatal,NSW,newcastle harbour,-32.9248,151.7701,estuary/harbour,,bull shark,Carcharhinus leucas,"bite analysis, shark behaviour, geographical location",,,,unprovoked,,1,swimming,,,,,,bit victim on leg,N,,leg,major lacerations,male,16,,,,,,,,,1,,,,,1,,,,,,,,,,,,media outlet,"shark&survl, miners advocate 27.1.1910",
154,2,1910,injured,WA,bunbury ,-33.3279,115.6293,coastal,surf beach,white shark,Carcharodon carcharias ,"bite analysis, shark behaviour, geographical location",,1.8,witness/victim,unprovoked,,1,swimming,,,,dead animal nearby (horse),,bit victim multiple times,,,"shoulder, torso, leg",major lacerations,male,,,,,,,,,,,,,,,,,,,,,,,,,,,media outlet,the western mail 26.2.1910,
155,3,1910,uninjured,WA,"cape leeuwin, off",-34.4019,115.1972,ocean/pelagic,open ocean,,,,,,,unprovoked,,1,swimming,,,,,,bit shoe,,,other: uninjured,,male,,,,,,,,,,,,,0,,,,,,,,,,,,,,media outlet,west australian 21.6.1910,
156,11,1910,injured,QLD,mackay (9 miles away),-21.0287,149.2162,river,,,,,,3,other: media report,unprovoked,,1,swimming,,,,,,bit victim on foot,,,foot,minor lacerations,male,,,,,,,,,,,,,,,,,,,,,,,,,,,media outlet,the advertiser 25.11.1910,
157,2,1911,uninjured,WA,"legendre island, off",-20.2398,116.6142,ocean/pelagic,open ocean,tiger shark,Galeocerdo cuvier ,"bite analysis, shark behaviour, geographical location",,,,unprovoked,,1,swimming,,,,commotion/splashing,,several attempted bites,,,other: uninjured,,male,,,,,,,,fended shark off with knife,,,,,,,,,,,,,,,,,,,media outlet,the advertiser 24.2.1911,
158,3,1911,fatal,QLD,"torres strait, thursday island ",-10.5856,142.2221,island open ocean,,tiger shark,Galeocerdo cuvier ,"bite analysis, shark behaviour, geographical location",,,,unprovoked,,1,swimming,,,,,,bit victim on uper thigh & torso,,,"torso, thigh",major lacerations,male,16,,,,,,,,,,,,,,,,,,,,,,,,,,media outlet,brisbane courier 28.3.1911,
159,10,1911,injured,QLD,cooktown (gbr),-15.4833,145.4041,island open ocean,other: reef,tiger shark,Galeocerdo cuvier ,"bite analysis, shark behaviour, geographical location",,,,provoked,,1,snorkelling,,Y,,,,bit victim on legs,,,leg,major lacerations,male,23,,,,,,,,,,,,,,,,,,,,,,,,,,media outlet,cairns post 2.11.1911,
160,1,1912,injured,NSW,sydney (near),-33.83,151.16,coastal,ocean beach,dusky shark,Carcharhinus obscurus,direct observation,,,,unprovoked,,1,swimming,,,,,,bit victim on leg,N,Y,"leg, pelvic region",major lacerations,male,,,,,,,,,,,,,,,,,,,,,,,,,,,book,"baldridge, shark.org.au, coppleson med journal 1933",
161,1,1912,fatal,NSW,"sydney harbour, lane cove river, figtree",-33.8277,151.1459,river,,bull shark,Carcharhinus leucas,direct observation,,3,other: measured captured shark,unprovoked,,1,swimming,,,,baitfish,,bit victim on leg,N,Y,thigh,major lacerations,male,,,,,,,,,,,,,,,3,,,,30,,,,,,,,media outlet,"baldridge,green, stead 1963, smh 27.1.1912",
162,1,1912,fatal,QLD,"townsville, ross creek",-19.2607,146.8183,estuary/harbour,,bull shark,Carcharhinus leucas,"bite analysis, shark behaviour, geographical location",,,,unprovoked,,1,swimming,,,,,,bit victim on leg,,,leg,major lacerations,male,,,,,,,,,,,,,,,,,,,,,,,,,,,media outlet,the mercury 2.1.1912,
163,2,1912,uninjured,WA,bunbury harbour,-33.3121,115.6428,coastal,harbour,wobbegong,Orectolobidae,direct observation,,,,provoked,victim intentionally hurt shark,1,diving,,Y,,other: metal helmet,,,Y,,other: uninjured,,male,,wetsuit/drysuit,full body,,,,,stabbed shark with wooden pailing,shark bite,,,,,,,,,,,,,,,,,,media outlet,bunbury herald 17.2.1912,
164,2,1912,injured,SA,carpenters rocks,-37.9119,140.3936,coastal,,white shark,Carcharodon carcharias ,"bite analysis, shark behaviour, geographical location",,2.4,witness/victim,provoked,,1,fishing,,,,fishing,,bit victim on hand,,,"arm, hand",major lacerations,male,,,,,,,,,,,,,0,,,,1,,,,,,,,,,media outlet,register (adelaide),
165,2,1912,injured,NSW,"sydney, coogee beach",-33.9206,151.2581,coastal,surf beach,white shark,Carcharodon carcharias ,"bite analysis, shark behaviour, geographical location",,,,unprovoked,,1,swimming,,,,,,bit victim on leg,N,,"calf, foot",major lacerations,male,,,,,,,,,,,,1600,,,,,,,100,,,,,,,,media outlet,"shark&survl, the argus 20.2.1912",
166,11,1912,injured,QLD,"moreton bay, sandgate, shorncliffe pier",-27.3238,153.0859,coastal,,tiger shark,Galeocerdo cuvier ,"shark behaviour, geographical location",,2.7,other: media report,unprovoked,,1,swimming,,,,,,bit leg - swam away,,,leg,major lacerations,male,35,,,,,,,kick at shark,,,,1750,1.6,,,,,,,,,,,,,,media outlet,brisbane telegraph 6.11.1912,
167,3,1913,injured,QLD,"torres strait, masig (yorke) island",-9.7514,143.4406,island open ocean,,tiger shark,Galeocerdo cuvier ,"bite analysis, shark behaviour",,,,provoked,,1,snorkelling,,Y,,,in front,bit victims head,,,head,minor lacerations,male,,,,,,,,,,,,,2.5,,,,,,,,,,,,,,media outlet,townsvilee daily bulletin 2.4.1913,
168,5,1913,injured,NSW,"yamba, clarence river",-29.4307,153.3573,river,,bull shark,Carcharhinus leucas,"bite analysis, shark behaviour, geographical location",,,,provoked,enticed shark,1,fishing,,,,"catch, fishing, baitfish",,bit victim on leg,,,leg,minor lacerations,male,,,,,,,,,,,,,1,,,,,,,,,,,,,,media outlet,clarence & richmand river examiner 6.5.1913,
169,6,1913,injured,QLD,"torres strait, badu island",-10.1692,142.1686,island open ocean,,,,,,,,provoked,,1,swimming,,,other: offal,other: turtle offal,,bit victim on face,,,head,major lacerations,male,,,,,,,,,,,,,,,,,,,,,,,,,,,media outlet,daily mercury 21.6.1913,
170,11,1913,injured,QLD,"moreton bay, sandgate, shorncliffe pier",-27.3212,153.0792,coastal,,tiger shark,Galeocerdo cuvier ,"bite analysis, shark behaviour",,2.5,witness/victim,unprovoked,,1,swimming,,,,,,bit victim on leg,N,,leg,major lacerations,male,13,,,,,,,punched and kicked shark,,,,,,N,,,2,,,,,,,,,,media outlet,"per.comm, the argus 22.11.1913",
171,12,1913,injured,SA,"adelaide, port noarlunga",-35.1507,138.4678,coastal,ocean beach,white shark,Carcharodon carcharias ,"bite analysis, shark behaviour, geographical location",,,,unprovoked,,1,swimming,,,,swimming,,bit victim on leg,,,leg,minor lacerations,male,,,,,,,,pushed shark away and splashed water,,,,2030,,,,,1,,150,,,,,,,,media outlet,the barrier miner 6.1.1914 & daily herald 5.1.1914,
172,1,1914,uninjured,NSW,"sydney harbour, five dock bay",-33.8486,151.1438,estuary/harbour,bay,bull shark,Carcharhinus leucas,"bite analysis, shark behaviour, geographical location",,,,unprovoked,,1,unmotorised boating,,,Vessel,,,bumped hull of craft,Y,,other: uninjured,,male,,,,,,,,hit shark with paddle,,,,1800,0,,,,,,,,,,,,,,media outlet,smh 23.1.1914,
173,1,1914,injured,QLD,"moreton bay, sandgate, shorncliffe pier",-27.3238,153.0859,coastal,,wobbegong,Orectolobidae,"bite analysis, shark behaviour, geographical location",,1.7,other: medical professional advice,unprovoked,,1,swimming,,,,,,bit victim on leg,,,leg,minor lacerations,female,,,,,,,,,,,,1000,,,5,,1,,,,,,,,,,media outlet,the brisbane courier 12.1.1914,
174,2,1914,injured,NSW,"sydney harbour, ryde, parramatta river",-33.8224,151.0933,river,,bull shark,Carcharhinus leucas,"bite analysis, shark behaviour",,,,unprovoked,,1,unmotorised boating,,,Vessel,,,bit canoe,Y,,torso,abrasion,male,23,,,,,,,splashed water with feet and hands,,,,,0,,10,,,,20,,,,,,,,media outlet,"smh 2.2.1914, the advertiser 2.2.1914",
175,2,1914,injured,SA,"yorke peninsula, marion bay",-35.2457,136.9805,coastal,,wobbegong,Orectolobidae,"bite analysis, shark behaviour, geographical location",,,,provoked,,1,spearfishing,,,,spearfishing,,bit victim on foot,,,foot,minor lacerations,male,,,,,,,,splashing water and shaking foot,,,,,,,,,,,,,,,,,,,media outlet,the advertiser 10.2.1914,
176,4,1914,injured,NSW,"maclean river, lawrence",-29.4333,153.1833,river,,bull shark,Carcharhinus leucas,"bite analysis, shark behaviour, geographical location",,,,provoked,enticed shark,1,fishing,,,,bait and/or berley,,bit foot,,,foot,minor lacerations,male,,,,,,,,,,,,,1,,,,1,,,,,,,,,,media outlet,richmond river herald 21.4.1914,
177,6,1914,fatal,VIC,"port phillip bay, sandringham beach",-37.9509,145.0004,coastal,bay,white shark,Carcharodon carcharias ,"bite analysis, shark behaviour, geographical location",,,,unprovoked,,1,swimming,,,,,,bit victim,,,other: body not recovered,,male,,,,,,,,,,,,,,,5,,,,100,,,,,,,,media outlet,the advertisor 11.6.1914,
178,12,1914,injured,QLD,"magnetic island, picnic bay wharf",-19.1808,146.8377,coastal,,,,,,,,unprovoked,,1,swimming,,,,,,bit thigh,,,thigh,minor lacerations,male,,,,,,,,,,,,,,,,,,,,,,,,,,,media outlet,northern miner 4.12.1914,
179,12,1914,injured,WA,"perth, cottesloe beach",-31.9947,115.7505,coastal,surf beach,wobbegong,Orectolobidae,direct observation,,0.8,witness/victim,provoked,physical contact,1,,,,,,,bit victim on leg,,Y,calf,minor lacerations,male,,,,,,,,,,,,,,,,,,,,,,,,,,,media outlet,the western mail 18.12.1914,
180,1,1915,fatal,NSW,"sydney harbour, sirius cove",-33.8397,151.2374,estuary/harbour,harbour beach,bull shark,Carcharhinus leucas,"bite analysis, shark behaviour, geographical location",,,,unprovoked,,1,swimming,,,,swimming,,bit leg,,,thigh,major lacerations,male,,,,,,,,,,,,,,,,,,,,,,,,,,,media outlet,"coppleson, the argus 2.1.1915",
181,2,1915,injured,QLD,moreton bay,-27.3143,153.1015,coastal,,wobbegong,Orectolobidae,"shark behaviour, geographical location",,,,unprovoked,,1,unmotorised boating,,,,,,bit victim on foot,,,foot,minor lacerations,male,,,,,,,,,,,,,,,,,,,,,,,,,,,media outlet,the queenslander 13.2.1915,
182,11,1915,injured,NSW,"sydney, manly, north steyne",-33.7916,151.2881,coastal,surf beach,whaler shark,Carcharhinidae,"bite analysis, shark behaviour",,,,unprovoked,,1,swimming,,,,,,bit victim on foot,N,,"leg, foot",major lacerations,male,,,,,,,,,,,,,,,,,,,,,,,,,,,media outlet,"shark&survl, the advertiser 9.11.1915",
183,11,1915,injured,QLD,"moreton bay, cabbage tree creek",-27.3307,153.0835,estuary/harbour,,bull shark,Carcharhinus leucas,"bite analysis, shark behaviour, geographical location",,,,unprovoked,,1,swimming,,,,,,bit victim on arm & chest,,,"arm, torso",minor lacerations,male,8,,,,,,,,,,,,,,,,,,,,,,,,,,media outlet,the brisbane courier 11.11.1915,
184,2,1916,uninjured,TAS,burnie,-41.0488,145.9095,coastal,beach to open ocean,wobbegong,Orectolobidae,"shark behaviour, geographical location",,1.5,other: media report,provoked,physical contact,1,diving,,Y,,other: metal helmet,,bit boot,,,other: uninjured,,male,,wetsuit/drysuit,full body,,,,,stabbed shark with knife,,,,,,,,,,,,,,,,,,,media outlet,north western advocate 26.2.1916,
185,3,1916,injured,NSW,"sydney, curl curl beach",-33.7708,151.2956,coastal,surf beach,white shark,Carcharodon carcharias ,"bite analysis, shark behaviour, geographical location",,,,unprovoked,,1,swimming,,,,,,bit victim on leg,,,leg,minor lacerations,male,,,,,,,,,,,,,,,,,,,,,,,,,,,media outlet,the argus 21.3.1916,
186,11,1916,fatal,QLD,"townsville, kissing point",-19.2386,146.8057,coastal,,tiger shark,Galeocerdo cuvier ,"bite analysis, shark behaviour, geographical location",,,,unprovoked,,1,swimming,,,,,,,,,,,male,27,,,,,,,,,,,,,,,,,,,,,,,,,,media outlet,cairns post 11.11.1916,
187,11,1916,fatal,QLD,"townsville, strand beach",-19.2459,146.8116,coastal,,tiger shark,Galeocerdo cuvier ,"bite analysis, shark behaviour, geographical location",,,,unprovoked,,1,swimming,,,,,,bit victim on leg,,,leg,major lacerations,male,,,,,,,,,,,,1800,,,,,,,,,,,,,,,media outlet,cairns post 11.11.1916,
188,11,1916,injured,WA,"port headland, condon creek",-20.002,119.3797,coastal,open ocean,tiger shark,Galeocerdo cuvier ,,other: report,3.7,other: media report,provoked,,1,snorkelling,,Y,,,,bit leg,,,leg,major lacerations,male,,,,,,,,,,,,,,,,,,,,,,,,,,,media outlet,northern times 25.11.1916,
189,11,1916,fatal,WA,"port headland, condon creek",-20.002,119.3797,coastal,open ocean,tiger shark,Galeocerdo cuvier ,,other: report,3.7,other: media report,provoked,,1,snorkelling,,Y,,,,bit leg off,,,leg,major lacerations,male,,,,,,,,,,,,,,,,,,,,,,,,,,,media outlet,northers times 25.11.1916,
190,12,1916,fatal,NSW,"sydney harbour, sugarloaf point",-33.7948,151.2302,estuary/harbour,bay,bull shark,Carcharhinus leucas,"bite analysis, shark behaviour, geographical location",,,,unprovoked,,1,other: standing in water,,,,swimming,in front,bit torso,,,"arm, torso",major lacerations,male,41,,,,,,,,,,,,1,,,,1,,,,,,,,,,media outlet,"sharpe, smh 9.12.1916",
191,12,1916,fatal,QLD,yeppoon (mens beach),-23.1311,150.7505,coastal,,tiger shark,Galeocerdo cuvier ,"bite analysis, shark behaviour, geographical location",,3,,unprovoked,,1,swimming,,,,swimming,,bit victim on leg,,Y,calf,major lacerations,male,26,,,,,,,,,,,,1,,,,1,,,,,,,,,,media outlet,the queenslander 6.1.1917,
192,6,1917,injured,QLD,moreton bay,-27.2792,153.1744,coastal,,whaler shark,Carcharhinidae,"shark behaviour, geographical location",,,,provoked,,1,fishing,,,,"catch, fishing, baitfish",,attempted to bite victim,Y,,leg,minor lacerations,male,,,,,,,,kicked at shark,,,,,0,,1,,,,,,,,,,,,media outlet,the advertiser 15.6.1917,
193,12,1917,injured,WA,port headland,-20.3067,118.6093,coastal,beach to open ocean,tiger shark,Galeocerdo cuvier ,"bite analysis, shark behaviour, geographical location",,,,unprovoked,,1,swimming,,,,,,bit victim on leg,,,thigh,major lacerations,male,,,,,,,,,,,,,,,,,,,,,,,,,,,media outlet,the western argus 25.12.1917,
194,1,1918,injured,NSW,"port stephens, tea gardens",-32.6777,152.1533,coastal,,wobbegong,Orectolobidae,direct observation,,,,provoked,enticed shark,1,fishing,,,Catch,fish cleaning,,bit victim on hand,,Y,"arm, hand",major lacerations,male,,,,,,,,,,,,,0,,,,,,,,,,,,,,media outlet,cairns post 12.3.1918,
195,3,1918,injured,NSW,newcastle beach,-32.9316,151.7848,coastal,,white shark,Carcharodon carcharias ,"bite analysis, shark behaviour, geographical location",,,,unprovoked,,,swimming,,,,swimming,in front,bit victim on arm,N,,"arm, hand",major lacerations,male,,,,,,,,pushed at shark,,,,1715,,,,,1,,75,,,,,,,,media outlet,"green, shark&survl. ndsl journal, argus 25.3.1918",
196,3,1918,injured,QLD,"gold coast, kirra beach",-28.1666,153.5322,coastal,,wobbegong,Orectolobidae,"bite analysis, shark behaviour, geographical location",,,,provoked,physical contact,1,swimming,,,,,,bit foot,,,foot,minor lacerations,male,,,,,,,,,,,,,,,,,,,,,,,,,,,media outlet,queensland times 21.3.1918,
197,3,1918,injured,NSW,tweed heads,-28.1671,153.5522,Coastal,,tiger shark,Galeocerdo cuvier ,"bite analysis, shark behaviour, geographical location",,,,unprovoked,,1,swimming,,,,,,bit leg,,,leg,major lacerations,male,,,,,,,,,,,,,,,,,1,,,,,,,,,,media outlet,shepparton advertiser 11.4.1918,
198,4,1918,uninjured,NSW,bermagui,-36.4242,150.0754,coastal,ocean beach,wobbegong,Orectolobidae,"bite analysis, shark behaviour, geographical location",,,,provoked,victim intentionally hurt shark,1,diving,,Y,,spearfishing,,bit boot,,,other: uninjured,,male,,wetsuit/drysuit,full body,,,,,,,,,,,,,,,,,,,,,,,,media outlet,corargo chronicle 6.4.1918,
199,4,1918,uninjured,NSW,"sydney harbour, berrys point, parramatta river",-33.8451,151.1903,river,,bull shark,Carcharhinus leucas,,researcher,,,unprovoked,,1,swimming,,,,,,bumped into victim,,,other: uninjured,,male,28,,,,,,,hit shark on nose several times,,,,0900,,,,,,,,,,,,,,,media outlet,the argus 10.4.1918,
200,9,1918,fatal,QLD,"townsville, strand beach",-19.2459,146.8116,coastal,,tiger shark,Galeocerdo cuvier ,"bite analysis, shark behaviour",,2.2,,unprovoked,,1,swimming,,,,,,bit leg,,,leg,major lacerations,male,,,,,,,,,,,,,0,,3,,1,,,,,,,,,,media outlet,brisbane courier 20.9.1918,
201,11,1918,fatal,QLD,"arlington reef, green island",-16.7061,146.0515,ocean/pelagic,,tiger shark,Galeocerdo cuvier ,"bite analysis, shark behaviour, geographical location",,,,provoked,,1,snorkelling,,Y,,,,bit torso,,,torso,major lacerations,male,,,,,,,,,,,,1500,,,,,,,,,,,,,,,media outlet,cairns post 22.11.1918,
202,1,1919,injured,NSW,newcastle beach,-32.9316,151.7848,coastal,,white shark,Carcharodon carcharias ,"shark behaviour, geographical location",,3.7,other: media report,unprovoked,,1,swimming,,,,swimming,,bit victim on leg,N,,"hand, torso, calf",major lacerations,male,19,,,,,,,pushed at shark,,1,,,,,,22,,,30,,,,,,,,media outlet,"baldridge & green, ndsl journal, mercury 20.1.1919",
203,1,1919,fatal,NSW,"sydney harbour, sirius cove",-33.8397,151.2374,estuary/harbour,harbour beach,bull shark,Carcharhinus leucas,"bite analysis, shark behaviour, geographical location",,3.5,other: media report,unprovoked,,1,swimming,,,,fishing,,bit victim on leg,N,,thigh,major lacerations,male,13,,,,,,,,,,,0730,1,,,28,1,,,,,,,,,,media outlet,"coppleson & green, the advertiser 10.1.1919.",
204,1,1919,fatal,QLD,"townsville, ross creek",-19.2607,146.8183,estuary/harbour,,bull shark,Carcharhinus leucas,"bite analysis, geographical location",,,,unprovoked,,1,swimming,,,,fishing,,bit victim on leg,N,,leg,major lacerations,male,38,,,,,,,,,,,,,,1,,,,,,,,,,,,media outlet,"green & sharpe. p. gilbert p. 519, the advertiser 10.1.1919",
205,12,1919,injured,QLD,bribie island,-27.0685,153.1472,coastal,,wobbegong,Orectolobidae,"bite analysis, shark behaviour, geographical location",,,,provoked,victim intentionally moved into immediate proximity of shark,1,swimming,,,,,,bit leg,,,leg,minor lacerations,male,,,,,,,,,,,,,,,,,,,,,,,,,,,media outlet,brisbane courier 30.12.1919,
206,12,1919,fatal,NSW,"macleay river, pelican island",-30.9244,153.0181,river,,bull shark,Carcharhinus leucas,"bite analysis, shark behaviour, geographical location",,,,unprovoked,,1,swimming,,,,,,bit victim on leg,,,"calf, foot",major lacerations,male,,,,,,,,,,,,,,,,,,,,,,,,,,,media outlet,"green, the advertiser 10.12.1919.",
207,1,1920,fatal,NSW,"newcastle, throsby creek",-32.9161,151.7596,estuary/harbour,,bull shark,Carcharhinus leucas,"bite analysis, geographical location",,,,unprovoked,,1,swimming,,,,,,bit victim on leg,N,,leg,major lacerations,male,12,,,,,,,,,1,,,1,,,24,,,,,,,,,,,media outlet,"coppleson & green, shark&survl, the argus 16.1.1920",
208,2,1920,uninjured,NSW,"central coast, the entrance",-33.3482,151.5033,estuary/harbour,,wobbegong,Orectolobidae,"shark behaviour, geographical location",,,,provoked,,1,spearfishing,,,,spearfishing,,bit sock,,,other: uninjured,,male,,,,,,,,,,,,,,,,,,,,,,,,,,,media outlet,maitland daily 4.3.1920,
209,3,1920,injured,QLD,"townsville, bay rock, cleveland bay",-19.1389,146.7639,coastal,,tiger shark,Galeocerdo cuvier ,"bite analysis, shark behaviour, geographical location",,,,unprovoked,,1,swimming,,,,swimming,,bit victim on body,N,,torso,major lacerations,male,20,,,,,,,,,,,1900,,,,,,,8000,,,,,,,,media outlet,"coppleson/goadby 1988, argus 11.3.1920",
210,7,1920,injured,QLD,mackay (320km east),-21.0327,152.3165,ocean/pelagic,other: reef,tiger shark,Galeocerdo cuvier ,"bite analysis, shark behaviour, geographical location",,,,provoked,,1,snorkelling,,Y,,,,bit victim on shoulder/arm,,,"arm, shoulder, torso",major lacerations,male,,,,,,,,,,,,,,,,,,,,,,,,,,,media outlet,brisbane courier 6.7.1920,
211,11,1920,injured,NSW,"forster, cape hawke",-32.2159,152.5709,coastal,,wobbegong,Orectolobidae,"bite analysis, shark behaviour, geographical location",,,,provoked,physical contact,1,snorkelling,,,,,,bit hand,,,"arm, hand",minor lacerations,male,,,,,,,,,,,,,,,,,,,,,,,,,,,media outlet,northern star 6.11.1920,
212,11,1920,injured,WA,"denmark, ocean beach",-35.0245,117.3367,coastal,surf beach,wobbegong,Orectolobidae,"bite analysis, shark behaviour, geographical location",,1.2,witness/victim,unprovoked,,1,other: standing in water,,,,swimming,,bit victim on leg,,,leg,,male,,,,,,,,pulled shark from leg,,,,2000,1,,2,,1,0,,,,,,,,,media outlet,the west australian 1.12.1920,
213,11,1920,injured,WA,"perth, cottesloe beach",-31.9947,115.7505,coastal,surf beach,wobbegong,Orectolobidae,"bite analysis, shark behaviour, geographical location, direct observation",,,,unprovoked,,1,other: standing in water,,,,,,bit victim on leg,,Y,"leg, hand",,male,,,,,,,,,,,,,,,,,,,,,,,,,,,media outlet,the western argus 30.11.1920,
214,12,1920,injured,QLD,howick island,-14.5096,144.9675,island open ocean,,,,,,,,provoked,enticed shark,1,fishing,,,,fishing,,bit leg,,,leg,minor lacerations,male,,,,,,,,,,,,,,,,,,,,,,,,,,,media outlet,chronicle 29.9.1938,
215,12,1920,injured,NSW,lismore - wilsons river,-28.8024,153.2819,river,,bull shark,Carcharhinus leucas,"bite analysis, shark behaviour, geographical location",,,,unprovoked,,1,swimming,,,,,,bit leg,,,leg,minor lacerations,male,,,,,,,,,,,,,,,,,,,,,,,,,,,media outlet,northern star 7.12.1920,
216,10,1921,injured,QLD,hinchinbrook island,-18.2333,146.6501,coastal,other: reef,tiger shark,Galeocerdo cuvier ,"bite analysis, shark behaviour, geographical location",,,,provoked,,1,snorkelling,,Y,,,,bit victim on arm,,,arm,major lacerations,male,,,,,,,,,,,,,,,,,,,,,,,,,,,media outlet,brisbane courier 15.10.1921,
217,10,1921,fatal,QLD,"cairns, elford reef (26 miles east)",-16.9548,146.1539,ocean/pelagic,,tiger shark,Galeocerdo cuvier ,"bite analysis, shark behaviour, geographical location",,,,unprovoked,,1,swimming,,,,,below,bit victim on leg,,,leg,major lacerations,male,,,,,,,,,,,,,0,,,,,,,,,,,,,,media outlet,cairns post 11.10.1921,
218,11,1921,fatal,QLD,"brisbane river, bulimba beach ",-27.4534,153.0531,river,,bull shark,Carcharhinus leucas,"bite analysis, shark behaviour, geographical location",,,,unprovoked,,1,swimming,,,,,,bit another person first,N,,other: body not recovered,,male,8,,,,,,,,,1,,,1,,,,,,,,,,,,,,media outlet,"baldridge & green, whitley 1933, argus 28.11.1921",
219,11,1921,injured,QLD,"brisbane river, bulimba beach ",-27.4534,153.0531,river,,bull shark,Carcharhinus leucas,"bite analysis, shark behaviour, geographical location",,,,unprovoked,,1,swimming,,,,,,bit victim on body,,,"leg, pelvic region",minor lacerations,male,,,,,,,,punched and kicked shark,,1,,,1,,,,,,,,,,,,,,media outlet,"baldridge & green. whitley 1933, argus 28.11.1921",
220,12,1921,injured,QLD,"rockhampton, fitzroy river",-23.3777,150.5155,river,,bull shark,Carcharhinus leucas,"shark behaviour, geographical location",,,,unprovoked,,1,swimming,,,,,,bit victim on torso,,,torso,minor lacerations,male,,,,,,,,,,,,,,,,,,,,,,,,,,,media outlet,the queenslander 17.12.1921,
221,1,1922,injured,NSW,"newcastle, stockton beach",-32.8811,151.8432,coastal,,white shark,Carcharodon carcharias ,"bite analysis, shark behaviour, geographical location",,,,unprovoked,,1,swimming,,,,,behind,bit victim on leg,N,,thigh,minor lacerations,male,,,,,,,,,,,,,,,,22,,,,,,,,,,,media outlet,"green, shark&survl, argus 14.1.1922.",
222,1,1922,fatal,QLD,"townsville, ross creek",-19.2607,146.8183,estuary/harbour,,bull shark,Carcharhinus leucas,"shark behaviour, geographical location",,,,unprovoked,,4,swimming,,,,"swimming, other sealife (shark/s)",,one shark bit the victim,N,,,major lacerations,male,54,,,,,,,,,,,,0,,1,,,,,,,,,,,,media outlet,"sharpe& green, the brisbane courier 16.1.1922",
223,2,1922,fatal,NSW,"sydney, coogee beach",-33.9206,151.2581,coastal,surf beach,white shark,Carcharodon carcharias ,"bite analysis, shark behaviour, geographical location",,,,unprovoked,,1,swimming,,,,"swimming, other sealife (shark/s)",,bumped victim with nose,N,,arm,major lacerations,male,19,,,,,,,hit shark with arms,,,,1530,0,,,,,,,,,,,,,,media outlet,"coppleson p.81, sharpe, green, argus 6.2.1922.",
224,3,1922,fatal,NSW,"sydney, coogee beach",-33.9206,151.2581,coastal,surf beach,white shark,Carcharodon carcharias ,"bite analysis, shark behaviour, geographical location",,2.5,witness/victim,unprovoked,,1,swimming,,,,"swimming, other sealife (shark/s)",,bit victim on hand,Y,,"hand, torso",major lacerations,male,21,,,,,,,hit shark,,,,1100,2.5,,,21,1,0,40,,,,,,,,media outlet,"baldridge, coppleson, green, sharpe, argus 3.3.1922",
225,12,1922,fatal,QLD,"hervey bay, pialba",-25.2809,152.8476,coastal,beach to open ocean,tiger shark,Galeocerdo cuvier ,"bite analysis, shark behaviour, geographical location",,3,witness/victim,unprovoked,,1,swimming,,,,swimming,,bit victim on body,N,,torso,major lacerations,male,,,,,,,,,,,,,1,,,,,,,,,,,,,,media outlet,"green, shark&survl. the argus 6.12.1922",
226,1,1923,fatal,WA,"perth, swan river, claremont",-31.9964,115.7724,river,,bull shark,Carcharhinus leucas,"bite analysis, shark behaviour",,,,unprovoked,,1,swimming,,,,,,bit victim on leg,N,,thigh,major lacerations,male,13,,,,,,,,,,,,0.6,,10,,0.5,,7,,,,,,,,media outlet,"green, shark&survl, the argus 29.1.1923",
227,1,1923,uninjured,NSW,"newcaste, merewether beach",-32.9468,151.7596,coastal,,white shark,Carcharodon carcharias ,"shark behaviour, geographical location",,3.2,,provoked,,1,swimming,,,,swimming,,swam towards victim,,,other: uninjured,,male,,,,,,,,splashed water,,,,,,,2,,,,200,,,,,,,,media outlet,smh 8.1.1923,
228,3,1923,injured,QLD,"townsville, ross creek",-19.2607,146.8183,estuary/harbour,,bull shark,Carcharhinus leucas,"bite analysis, shark behaviour, geographical location",,,,unprovoked,,1,swimming,,,,swimming,,bit legs,,,leg,minor lacerations,male,,,,,,,,,,,,,,,,,,,,,,,,,,,media outlet,northern miner 19.3.1923,
229,5,1923,fatal,QLD,townsville area (gbr),-18.3646,146.8562,ocean/pelagic,other: reef,tiger shark,Galeocerdo cuvier ,"bite analysis, shark behaviour, geographical location",,,,provoked,,1,snorkelling,,Y,,,,bit victim on torso,,,torso,major lacerations,male,,,,,,,,,,,,,,,,,,,,,,,,,,,media outlet,the queenslander 2.6.1923,
230,5,1923,injured,WA,"geraldton, southgate",-28.8295,114.6276,coastal,beach to open ocean,wobbegong,Orectolobidae,"bite analysis, shark behaviour, geographical location",,,,provoked,enticed shark,1,fishing,,,,fishing,,bit victim on foot,,,foot,other: teeth marks,male,,,,,,,,,,,,,,,,,,,,,,,,,,,media outlet,west australian 24.5.1923,
231,6,1923,injured,QLD,townsville area (gbr),-18.4177,147.4524,ocean/pelagic,other: reef,tiger shark,Galeocerdo cuvier ,"bite analysis, shark behaviour, geographical location",,,,provoked,,1,snorkelling,,Y,,,,,,,,major lacerations,male,,,,,,,,,,,,,0,,,,,,,,,,,,,,media outlet,cairns post 2.7.1923,
232,6,1923,fatal,NSW,"wollongong, bellambi ",-34.3652,150.9232,coastal,,white shark,Carcharodon carcharias ,"bite analysis, shark behaviour, geographical location",,,,unprovoked,,3,swimming,,,,fishing,,bit victim on body,Y,,other: body not recovered,,male,50,,,,,,,,,,,,,,30,,,,2000,,,,,,,,media outlet,"shark&survl, the argus 18.6.1923",
233,10,1923,injured,QLD,"torres strait, unknown location",-10.5728,142.2481,island open ocean,other: reef,tiger shark,Galeocerdo cuvier ,"bite analysis, shark behaviour",,,,provoked,,,snorkelling,,Y,,,,,N,,arm,major lacerations,male,,,,,,,,,,,,,,,,,,,,,,,,,,,book,green.,
234,11,1923,fatal,WA,"port headland, condon creek",-20.002,119.3797,coastal,open ocean,tiger shark,Galeocerdo cuvier ,"bite analysis, shark behaviour, geographical location",,,,provoked,,,,,Y,,,,,N,,other: body not recovered,major lacerations,male,,,,,,,,,,,,,,,,,,,,,,,,,,,media outlet,"green, shark&survl, the west australian 27.1.1923",
235,11,1923,fatal,WA,"port headland, condon creek",-20.002,119.3797,coastal,open ocean,tiger shark,Galeocerdo cuvier ,"bite analysis, shark behaviour, geographical location",,,,provoked,,,,,Y,,,,,N,,other: half of body recovered,major lacerations,male,,,,,,,,,,,,,,,,,,,,,,,,,,,media outlet,"green, shark&survl, the west australian 27.1.1923",
236,12,1923,injured,NSW,"tweed river, murwillumbah",-28.3176,153.4264,river,,bull shark,Carcharhinus leucas,"bite analysis, shark behaviour, geographical location",,,,unprovoked,,1,swimming,,,,,,bit victim on leg,,,leg,minor lacerations,male,,,,,,,,,,,,,,,,,,,,,,,,,,,media outlet,the advertiser 12.12.1923,
237,1,1924,fatal,NSW,"sydney harbour, parramatta river, camellia",-33.8186,151.0305,river,,bull shark,Carcharhinus leucas,"bite analysis, shark behaviour, geographical location",,3.2,witness/victim,unprovoked,,1,swimming,,,,swimming,,bit victim on body,N,,"arm, torso, foot",major lacerations,male,,,,,,,,hit shark with right hand,,,,1600,1,,2,23,,,,,,,,,,,media outlet,green & sharpe p.66. smh 21.1.1924,
238,2,1924,injured,WA,bunbury,-33.3152,115.6383,coastal,surf beach,wobbegong,Orectolobidae,"bite analysis, shark behaviour, geographical location",,0.914634146341463,other: media report,unprovoked,,1,swimming,,,,,,bit victim on foot,,,foot,minor lacerations,male,,,,,,,,,,,,,,,,,,,,,,,,,,,media outlet,bunbury herald 15.2.1924,
239,2,1924,injured,NSW,"sydney, bronte beach",-33.9033,151.2685,coastal,surf beach,white shark,Carcharodon carcharias ,"bite analysis, shark behaviour",,,,unprovoked,,1,swimming,,,,,,bit victim on leg,N,,"leg, foot",major lacerations,female,30,,,,,,,,,,,0700,1.8,,,23,,,,,,,,,,,media outlet,"sharpe, green. the argus 14.2.1924",
240,4,1924,fatal,NSW,"kiama, blowhole",-34.6707,150.8636,coastal,ocean beach,white shark,Carcharodon carcharias ,"bite analysis, shark behaviour, geographical location",,,,unprovoked,,,swimming,,,,fishing,,,N,,,major lacerations,male,20,,,,,,,,,,,,0,,1,19,,,,,,,,,,,media outlet,sharks & survival. whitley 1933. the argus 28.4.1924,
241,10,1924,injured,VIC,"port philip bay, port melbourne, town pier",-37.8444,144.9368,coastal,bay,white shark,Carcharodon carcharias ,"bite analysis, shark behaviour, geographical location",,3,witness/victim,unprovoked,,1,swimming,,,,swimming,,bit victim on leg,N,,leg,major lacerations,male,,,,,,,,,,,,,0,,,,,,,,,,,,,,media outlet,"whitley, green, the mail 18.10.1924",
242,3,1925,injured,NSW,"sydney, coogee beach",-33.9206,151.2581,coastal,surf beach,white shark,Carcharodon carcharias ,"bite analysis, shark behaviour, geographical location",,,,unprovoked,,1,swimming,,,,,,bit victim on leg,N,,leg,major lacerations,male,16,,,,,,,,,,,1700,0,,,22,,,,,,,,,,,media outlet,"baldridge, green, coppleson/goadby, argus 28.3.1925",
243,3,1925,fatal,NSW,newcastle beach,-32.9316,151.7848,coastal,,white shark,Carcharodon carcharias ,"bite analysis, shark behaviour, geographical location",,3,other: media report,unprovoked,,1,swimming,,,,snorkelling,,bit victim on body,N,,"arm, torso",major lacerations,male,16,,,,,,,,,,,1530,0,,,22,,,220,,,moderate breeze,overcast,,,,media outlet,"coppleson, shark&survl,ndsl journal, smh 13.3.1925",
244,11,1925,fatal,WA,"perth, cottesloe beach",-31.9947,115.7505,coastal,surf beach,tiger shark,Galeocerdo cuvier ,direct observation,,4,other: measured captured shark,unprovoked,,1,swimming,,,,,,bit victim on body,N,Y,"torso, leg",major lacerations,male,55,,,,,,,,,,,,0,,,,8,,40,,,,,,,,media outlet,"sharpe, green, shark&survl, argus 30.11.1925",
245,3,1926,fatal,SA,"adelaide, brighton pier",-35.0176,138.5122,coastal,ocean beach,white shark,Carcharodon carcharias ,"bite analysis, shark behaviour, geographical location",,4,other: media report,unprovoked,,1,swimming,,,,,,bit victim on leg,N,,thigh,major lacerations,female,,,,,,,,,,,,1600,1,,,,1,,,,,,,,,,media outlet,"sharpe, green, shark&survl, argus 19.3.1926",
246,10,1926,injured,NSW,"yamba, clarence river, maclean",-29.4576,153.1961,river,,bull shark,Carcharhinus leucas,"shark behaviour, geographical location",,,,unprovoked,,1,swimming,,,,,,bit victim ,,,,,male,,,,,,,,,,,,1600,,,,,,,,,,,,,,,media outlet,the queenslander 30.10.1926,
247,11,1926,injured,QLD,"torres strait, unknown location",-10.5728,142.2481,island open ocean,other: reef,tiger shark,Galeocerdo cuvier ,"bite analysis, shark behaviour, geographical location",,,,provoked,,,snorkelling,,Y,,,,,N,,arm,minor lacerations,male,,,,,,,,,,,,,,,,,,,,,,,,,,,book,"whitley, green, shark&survl.",
248,12,1926,fatal,QLD,palm island,-18.7167,146.5651,island open ocean,other: reef,tiger shark,Galeocerdo cuvier ,"bite analysis, shark behaviour, geographical location",,,,provoked,,1,snorkelling,,Y,,,,,,,,,male,,,,,,,,,,,,,,,,,,,,,,,,,,,media outlet,queenslander 11.12.1926,
249,1,1927,injured,QLD,"torres strait, thursday island ",-10.5861,142.2208,island open ocean,other: reef,tiger shark,Galeocerdo cuvier ,"bite analysis, shark behaviour, geographical location",,,,provoked,,,snorkelling,,Y,,,,,,,"torso, shoulder",minor lacerations,male,,,,,,,,,,,,,,,,,,,,,,,,,,,book,"green, shark&survl, whitley book 1940",
250,1,1927,fatal,NSW,"sydney, grays point, port hacking",-34.0569,151.0867,river,,tiger shark,Galeocerdo cuvier ,"bite analysis, shark behaviour, geographical location",,4,other: media report,unprovoked,,1,swimming,,,,swimming,,bit victim on body,N,,thigh,major lacerations,male,15,,,,,,,,,,8,1130,,,,20,,,,,,,,,,,media outlet,"green, shark&survl., smh 4.1.1927",
251,2,1927,uninjured,QLD,brisbane river,-27.4649,153.0345,river,,bull shark,Carcharhinus leucas,"bite analysis, shark behaviour, geographical location",,,,unprovoked,,1,swimming,,,,,behind,attempted to bit legs,,,other: uninjured,,male,,,,,,,,kicked at shark on two occasions,,1,,,0,,1,,,,,,,,,,,,media outlet,northern territory times 11.2.1927,
252,3,1927,injured,NSW,"newcaste, merewether beach",-32.9468,151.7596,coastal,,white shark,Carcharodon carcharias ,"bite analysis, shark behaviour, geographical location",,3,witness/victim,unprovoked,,1,swimming,,,,swimming,other: side,bit victim on body,Y,,"hand, pelvic region",major lacerations,male,17,,,,,,,pushed at shark,,,,1500,,,,22,,,50,,,,,,,,media outlet,"baldridge, shark&survl.ndls, smh 2.3.1927",
253,4,1927,injured,QLD,"torres strait, unknown location",-10.5728,142.2481,island open ocean,other: reef,tiger shark,Galeocerdo cuvier ,"bite analysis, shark behaviour, geographical location",,1.8,other: media report,provoked,,1,,,Y,,,,bit victim on leg,N,,leg,minor lacerations,male,,,,,,,,pushed fingers in sharks eyes,,,,,1,,,,1,,,,,,,,,,media outlet,"green, shark&survl, the queenslander 15.9.1927",
254,4,1927,injured,QLD,"torres strait, unknown location",-10.5728,142.2481,island open ocean,other: reef,tiger shark,Galeocerdo cuvier ,"bite analysis, shark behaviour, geographical location",,,,provoked,,,snorkelling,,Y,,,,,N,,leg,major lacerations,male,,,,,,,,,,,,,,,,,,,,,,,,,,,book,sharks & survival.,
255,5,1927,fatal,QLD,cairns (near),-16.9987,145.8974,coastal,,tiger shark,Galeocerdo cuvier ,"bite analysis, shark behaviour",,,,unprovoked,,1,swimming,,,,,,bit victim on leg,N,,leg,major lacerations,male,,,,,,,,,,,,,1,,,,1,,,,,,,,,,media outlet,"green, shark&survl, whitely, brisbane courier 10.5.1927",
256,7,1927,uninjured,WA,broome (area),-18.0138,122.2842,coastal,bay to open ocean,tiger shark,Galeocerdo cuvier ,"bite analysis, shark behaviour, geographical location",,,,provoked,,1,diving,,Y,,,,,,,other: uninjured,,male,,wetsuit/drysuit,full body,,,,,,,,,,1,,,,,,,,,,,,,,media outlet,western mail 28.7.1927,
257,1,1928,fatal,QLD,"torres strait, deliverance island",-9.5248,141.5729,island open ocean,,tiger shark,Galeocerdo cuvier ,"bite analysis, shark behaviour, geographical location",,,,provoked,enticed shark,,,,,,bait and/or berley,,,,,"arm, leg",major lacerations,male,,,,,,,,,,,,,,,,,,,,,,,,,,,media outlet,brisbane courier 4.2.1933,
258,2,1928,fatal,QLD,"barrow point, 100km north of cooktown",-14.3409,144.6463,island open ocean,other: reef,tiger shark,Galeocerdo cuvier ,"bite analysis, shark behaviour, geographical location",,,,provoked,,,snorkelling,,Y,,,,,N,,,,male,,,,,,,,,,,,,,,,,,,,,,,,,,,book,"green, shark&survl, whitely,",
259,3,1928,injured,QLD,bowen (gbr),-19.8001,149.0501,coastal,other: reef,tiger shark,Galeocerdo cuvier ,"bite analysis, shark behaviour, geographical location",,,,provoked,,1,snorkelling,,Y,,,,bit victim on hip,,,torso,minor lacerations,male,,,,,,,,,,,,,0,,,,,,,,,,,,,,media outlet,townsville daily bulletin 28.3.1928,
260,4,1928,injured,QLD,"brisbane river, graceville",-27.5221,152.9693,river,,bull shark,Carcharhinus leucas,"bite analysis, shark behaviour, geographical location",,1.2,,unprovoked,,1,swimming,,,,swimming,,bit victim on leg,,,leg,minor lacerations,male,15,,,,,,,,,,,,0,,,,,,20,,,,,,,,media outlet,brisbane courier 7.4.1928,
261,4,1928,injured,NSW,"sydney, north bondi beach ",-33.8907,151.2817,coastal,surf beach,white shark,Carcharodon carcharias ,"bite analysis, shark behaviour",,,,unprovoked,,1,swimming,,,,,,bit victim on leg,N,,calf,major lacerations,male,19,,,,,,,hit shark with fist,,,,1600,0,,,20,,,100,,,,,,,,media outlet,sharpe p56. the canberra times 16.4.1928,
262,4,1928,fatal,NSW,"newcastle, bar beach ",-32.9415,151.7686,coastal,,white shark,Carcharodon carcharias ,"bite analysis, shark behaviour, geographical location",,,,unprovoked,,1,swimming,,,,swimming,,bit victim on body,N,,"hand, leg, torso",major lacerations,male,27,,,,,,,punched and kicked shark,,2,,1800,1,,2,21,,,50,,,,,,,,media outlet,"sharpe,green, ndsl journal, smh 5.4.1928",
263,7,1928,injured,QLD,"torres strait, unknown location",-10.5728,142.2481,island open ocean,other: reef,tiger shark,Galeocerdo cuvier ,"bite analysis, shark behaviour, geographical location",,,,unprovoked,,,swimming,,,,,,,N,,"arm, torso",major lacerations,male,,,,,,,,,,,,,,,,,,,,,,,,,,,book,sharks & survival.,
264,12,1928,injured,QLD,"torres strait, unknown location",-10.5728,142.2481,island open ocean,other: reef,tiger shark,Galeocerdo cuvier ,"bite analysis, shark behaviour, geographical location",,,,provoked,,1,snorkelling,,Y,,,,bit hand,N,,"arm, hand",major lacerations,male,,,,,,,,hit shark with hand,,,,,,,,,,,,,,,,,,,media outlet,"sharks & survival, whitely cairns post 19.2.1929",
265,1,1929,fatal,QLD,"magnetic island, alma bay",-19.1486,146.8694,coastal,,tiger shark,Galeocerdo cuvier ,"bite analysis, shark behaviour, geographical location",,,,unprovoked,,1,swimming,,,,swimming,,bit victim on arm,N,,"arm, torso",major lacerations,male,18,,,,,,,,,,,1730,0,,,,,,,,,,,,,,media outlet,"green, the canberra times 29.1.1929",
266,1,1929,injured,SA,ardrossan beach,-34.4243,137.9221,coastal,,wobbegong,Orectolobidae,"bite analysis, shark behaviour, geographical location",,,,provoked,,1,fishing,,Y,Catch,"catch, fishing",,bit victim on leg,Y,Y,leg,other: teeth marks,male,,,,,,,,killed shark to get it off leg,,,,,,,,,,,,,,,,,,,media outlet,register news pictorial 4.3.1929,
267,1,1929,fatal,NSW,"sydney, bondi beach",-33.8921,151.2762,coastal,surf beach,white shark,Carcharodon carcharias ,"shark behaviour, geographical location",,4.9,other: media report,unprovoked,,1,swimming,,,,swimming,,bit victim on leg,N,,thigh,major lacerations,male,14,,,,,,,,,,10,1830,0,,,23,,,40,,,,,,,,media outlet,"sharpe, green, smh 14.1.1929",
268,2,1929,injured,NSW,jervis bay,-35.048,150.6796,coastal,bay,wobbegong,Orectolobidae,"bite analysis, shark behaviour, geographical location",,,,provoked,physical contact,1,snorkelling,,,other animal in area,"snorkelling, other sealife (dolphins)",,bit victim on foot,,,foot,minor lacerations,male,,,,,,,,,,,,,,,,,,,,,,,,,,,media outlet,barrier miner 24.2.1929,
269,2,1929,fatal,NSW,"sydney, maroubra beach",-33.9509,151.2578,coastal,surf beach,white shark,Carcharodon carcharias ,,researcher,,,unprovoked,,1,swimming,,,,"swimming, dead animal nearby (whale)",,bit victim on leg,N,,"leg, hand",major lacerations,male,19,,,,,,,hit shark with hand,,,3,1600,0,,,22,,,75,,High ,,overcast,,,,media outlet,"sharpe, green & coppleson, canberra times 19.2.1929",
270,2,1929,fatal,NSW,"sydney, bondi beach",-33.8921,151.2762,coastal,surf beach,white shark,Carcharodon carcharias ,"bite analysis, shark behaviour",,,,unprovoked,,1,swimming,,,,,,bit victim on leg,N,,thigh,major lacerations,male,39,,,,,,,hit shark with fist,,,,1600,,,,22,4,,,,,,,,,,media outlet,"sharpe, whitley 1940, the canberra times 9.2.1929",
271,2,1929,uninjured,SA,"adelaide, glenelg beach",-34.9804,138.5131,coastal,ocean beach,white shark,Carcharodon carcharias ,"shark behaviour, geographical location",,3.6,other: media report,unprovoked,,1,unmotorised boating,,,Vessel,,,bumped canoe with nose,,,other: uninjured,,female,,,,,,,,hit shark with paddle,,,,,,,,,,,,,,,,,,,media outlet,the argus 11.2.1929,
272,3,1929,injured,QLD,bowen (gbr),-19.5167,148.8333,island open ocean,other: reef,,,,,,,provoked,,1,snorkelling,,Y,,,,,,,,major lacerations,male,,,,,,,,,,,,,,,,,,,,,,,,,,,media outlet,bowen independent 30.3.1929,
273,3,1929,injured,SA,ardrossan beach,-34.4243,137.9221,coastal,,wobbegong,Orectolobidae,"bite analysis, shark behaviour, geographical location",,,,unprovoked,,1,unmotorised boating,,,,boating,,bit victim on foot,,,leg,,male,12,,,,,,,,,,,,1,,,,,,,,,,,,,,media outlet,the barrier miner 5.3.1929,
274,3,1929,injured,SA,ardrossan beach,-34.4243,137.9221,coastal,,wobbegong,Orectolobidae,"bite analysis, shark behaviour, geographical location",,,,unprovoked,,1,unmotorised boating,,,,boating,,bit victim on leg,,,foot,,male,12,,,,,,,,,,,,1,,,,,,,,,,,,,,media outlet,the barrier miner 5.3.1929,
275,3,1929,fatal,QLD,"torres strait, dauan island",-9.4202,142.5345,island open ocean,,tiger shark,Galeocerdo cuvier ,"bite analysis, shark behaviour, geographical location",,,,unprovoked,,,swimming,,,,,,,N,,,,male,,,,,,,,,,,,,,,,,,,,,,,,,,,book,"sharks & survival, whitely.",
276,4,1929,injured,QLD,mackay,-21.0088,149.8921,island open ocean,other: reef,tiger shark,Galeocerdo cuvier ,"bite analysis, shark behaviour, geographical location",,,,provoked,,1,snorkelling,,Y,,,,bit victim on hand,,,"arm, hand",major lacerations,male,,,,,,,,,,,,,,,,,,,80000,,,,,,,,media outlet,brisbane courier 18.4.1929,
277,4,1929,injured,QLD,"bribie passage, pumicestone channel",-27.0329,153.1029,coastal,,bull shark,Carcharhinus leucas,"bite analysis, shark behaviour, geographical location",,1.5,,provoked,capture of shark,1,fishing,,Y,,fishing,,bit victim on leg,Y,Y,leg,major lacerations,male,21,,,,,,,,,,,,1,,,,,,,,,,,,,,media outlet,brisbane courier 3.5.1929,
278,4,1929,fatal,QLD,"torres strait, badu island",-10.1692,142.1686,island open ocean,,tiger shark,Galeocerdo cuvier ,"bite analysis, shark behaviour, geographical location",,,,unprovoked,,,swimming,,,,swimming,,,N,,thigh,major lacerations,male,,,,,,,,,,,,1200,,,,,,,,,,,,,,,other: inquest report,"sharks & survival, inquest report 9.4.1929",
279,5,1929,injured,QLD,"torres strait, poruma (coconut) island",-10.0486,143.0621,island open ocean,,tiger shark,Galeocerdo cuvier ,"bite analysis, shark behaviour, geographical location",,,,provoked,,1,snorkelling,,Y,,,,bit victim mutliple times,N,,"leg, pelvic region",major lacerations,male,,,,,,,,hit shark several times,,,,,,,,,,,,,,,,,,,media outlet,sharks & survival courier mail 14.1.1950,
280,9,1929,injured,QLD,"torres strait, unknown location",-10.5728,142.2481,island open ocean,other: reef,tiger shark,Galeocerdo cuvier ,"bite analysis, shark behaviour, geographical location",,,,provoked,,1,spearfishing,,,,spearfishing,,,,,leg,major lacerations,male,,,,,,,,,,,,,,,,,,,,,,,,,,,media outlet,brisbane courier 28.9.1929,
281,9,1929,fatal,QLD,"townsville, ross creek",-19.2607,146.8183,estuary/harbour,,bull shark,Carcharhinus leucas,"bite analysis, shark behaviour",,,,unprovoked,,,swimming,,,,,,,N,,leg,major lacerations,male,42,,,,,,,,,,,,,,,,,,,,,,,,,,media outlet,"sharpe, green, argus 2.9.1929.",
282,10,1929,injured,QLD,"torres strait, badu island",-10.1692,142.1686,island open ocean,,tiger shark,Galeocerdo cuvier ,"bite analysis, shark behaviour, geographical location",,,,unprovoked,,,swimming,,,,,,,N,,foot,major lacerations,male,,,,,,,,,,,,,,,,,,,,,,,,,,,book,sharks & survival.,
283,12,1929,fatal,QLD,"townsville, ross creek",-19.2607,146.8183,estuary/harbour,,bull shark,Carcharhinus leucas,"bite analysis, shark behaviour, geographical location",,,,unprovoked,,,swimming,,,,,,,,,"torso, leg",major lacerations,male,50,,,,,,,,,,,,,,,,,,,,,,,,,,media outlet,cairns post 4.12.1929,
284,12,1929,injured,NSW,"sydney, collaroy beach",-33.7317,151.3024,coastal,surf beach,wobbegong,Orectolobidae,"bite analysis, shark behaviour",,,,unprovoked,,1,swimming,,,,,,bit victim on leg,,,leg,minor lacerations,female,17,,,,,,,,,,,,1,,,23,,,30,,,,,,,,media outlet,"coppleson, green, shark&survl, argus 17.12.1929",
285,12,1929,fatal,NSW,"sydney harbour, bald rock wharf, white bay",-33.8645,151.1811,estuary/harbour,,bull shark,Carcharhinus leucas,shark behaviour,,,,unprovoked,,1,swimming,,,,swimming,,bit victim on leg,N,,"arm, leg, pelvic region",major lacerations,male,16,,,,,,,,no effect,,,,0,,,22,,,,,,,,,,,media outlet,"green, shark&survl, whitely, canberra times 27.12.1929",
286,12,1929,injured,QLD,"torres strait, unknown location",-10.5728,142.2481,island open ocean,other: reef,tiger shark,Galeocerdo cuvier ,"bite analysis, shark behaviour, geographical location",,,,unprovoked,,,swimming,,,,,,,N,,"arm, torso",major lacerations,male,,,,,,,,,,,,,,,,,,,,,,,,,,,book,"green, whitely.",
287,12,1929,uninjured,QLD,"gold coast, currumbin",-28.1295,153.4888,coastal,,,,,,,,unprovoked,,1,swimming,,,,,,close passes,,,other: uninjured,,male,,,,,,,,hit at shark as it passed by,,,,,,,,,,,,,,,,,,,media outlet,the canberra times 24.12.1929,
288,1,1930,injured,QLD,"torres strait, moa island",-10.1945,142.3383,island open ocean,,tiger shark,Galeocerdo cuvier ,"bite analysis, shark behaviour, geographical location",,,,provoked,,1,spearfishing,,,Catch,spearfishing,,bit hand & arm,,,arm,major lacerations,male,,,,,,,,,,,,,4,,,,,,,,,,,,,,media outlet,courier mail 14.1.1950,
289,2,1930,fatal,VIC,"port philip bay, middle brighton pier",-37.9077,144.9801,coastal,bay,white shark,Carcharodon carcharias ,"shark behaviour, geographical location, direct observation",,5,witness/victim,unprovoked,,1,swimming,,,,,below,bit victim on legs,N,,other: body not recovered,,male,19,,,,,,,hit shark with fist,,,,1630,0,,1,,5,,120,,,moderate breeze,,,,,media outlet,"sharpe, asaf questionnaire, agrus 17.2.1930, ",
290,2,1930,injured,QLD,"torres strait, unknown location",-10.5728,142.2481,island open ocean,other: reef,tiger shark,Galeocerdo cuvier ,"bite analysis, shark behaviour, geographical location",,,,unprovoked,,,swimming,,,,,,,N,,"arm, torso",major lacerations,male,,,,,,,,,,,,,,,,,,,,,,,,,,,book,whitely.,
291,6,1930,fatal,QLD,"torres strait, mabuiag island",-9.9551,142.1941,island open ocean,,tiger shark,Galeocerdo cuvier ,"bite analysis, shark behaviour, geographical location",,,,unprovoked,,,swimming,,,,,,,N,,,,male,,,,,,,,,,,,,,,,,,,,,,,,,,,book,whitely.,
292,7,1930,fatal,QLD,"torres strait, badu island",-10.1692,142.1686,island open ocean,,tiger shark,Galeocerdo cuvier ,"bite analysis, shark behaviour, geographical location",,,,provoked,,,snorkelling,,Y,,,,,Y,,,,male,16,,,,,,,,,,,,0,,,,,,,,,,,,,,media outlet,courier mail 14.1.1950,
293,8,1930,injured,WA,"geraldton, point moore",-28.7832,114.5481,coastal,beach to open ocean,wobbegong,Orectolobidae,"bite analysis, shark behaviour, geographical location",,0.6,witness/victim,provoked,enticed shark,1,fishing,,,,,,bit victim on leg,,,leg,other: teeth marks,male,,,,,,,,hit shark with rod,,,,,,,,,,,,,,,,,,,media outlet,the west australian 3.9.1930,
294,12,1930,injured,NSW,"sydney harbour, powells creek, parramatta river",-33.8549,151.0831,river,,bull shark,Carcharhinus leucas,"bite analysis, shark behaviour, geographical location",,,,unprovoked,,1,swimming,,,,,,bumped victim with nose,N,,torso,abrasion,male,49,,,,,,,splashed water,,,,,,,,,,,,,,,,,,,media outlet,"sharpe, green. the canberra times 27.12.1930",
295,1,1931,injured,NSW,"sydney harbour, spit bridge",-33.8086,151.2489,estuary/harbour,bay to open ocean,wobbegong,Orectolobidae,"bite analysis, shark behaviour, geographical location",,,,provoked,"enticed shark, physical contact",1,fishing,,,,catch,,bit victim on foot,,,foot,minor lacerations,male,,,,,,,,,,,,,,,,,,,1,,,,,,,,media outlet,"geraldton guardian 12.1.1931, smh 10.1.1931",
296,1,1931,injured,QLD,yeppoon,-23.1337,150.7523,coastal,,tiger shark,Galeocerdo cuvier ,"bite analysis, shark behaviour, geographical location",,1.5,witness/victim,unprovoked,,1,swimming,,,,swimming,,bit victim on torso,N,,torso,minor lacerations,male,18,,,,,,,pushed fingers in sharks eyes,,,,1600,0,,,,,,600,,,,,,,,media outlet,"green, whitely, morning bulletin 9.1.1931",
297,1,1931,injured,QLD,"torres strait, unknown location",-10.5728,142.2481,island open ocean,other: reef,tiger shark,Galeocerdo cuvier ,"bite analysis, shark behaviour, geographical location",,,,provoked,,,snorkelling,,Y,,,,,N,,"leg, pelvic region",major lacerations,male,,,,,,,,,,,,,,,,,,,,,,,,,,,book,shark&survul.,
298,1,1931,injured,QLD,"torres strait, unknown location ",-10.5728,142.2481,island open ocean,other: reef,tiger shark,Galeocerdo cuvier ,"bite analysis, shark behaviour, geographical location",,,,provoked,,1,snorkelling,,Y,,,,,,,,,male,,,,,,,,,,,,,,,,,,,,,,,,,,,book,whitely book 1940 page 262,
299,3,1931,fatal,QLD,"townsville, ross creek",-19.2607,146.8183,estuary/harbour,,bull shark,Carcharhinus leucas,"bite analysis, shark behaviour",,,,provoked,enticed shark,1,swimming,,,,"catch, baitfish",,bit victim on leg,N,,thigh,major lacerations,male,19,,,,,,,,,,,,1.2,,,,1.2,,,,,,,,,,media outlet,"sharpe, green, argus 23.3.1931",
300,11,1931,injured,QLD,innisfail (gbr),-17.5244,146.3644,coastal,,tiger shark,Galeocerdo cuvier ,"bite analysis, shark behaviour, geographical location",,4,,provoked,,1,snorkelling,,Y,,,,,N,,leg,major lacerations,male,,,,,,,,,,,,,,,,,,,,,,,,,,,media outlet,"green, whitely, argus 28.11.1931.",
301,1,1932,injured,QLD,"brisbane river, bremer river",-27.6015,152.7663,river,,bull shark,Carcharhinus leucas,"bite analysis, shark behaviour, geographical location",,,,unprovoked,,1,swimming,,,,,,bit victim on leg,,,thigh,minor lacerations,male,,,,,,,,,,,,,,,,,,,,,,,,,,,media outlet,brisbane courier 28.1.1932,
302,2,1932,injured,QLD,calliope river,-23.8604,151.2027,river,,bull shark,Carcharhinus leucas,"bite analysis, shark behaviour, geographical location",,,,provoked,,1,fishing,,,,commotion/splashing,,bit foot,,,foot,minor lacerations,male,,,,,,,,,,,,,,,,,1,,,,,,,,,,media outlet,central queensland herald 11.8.1932,
303,2,1932,injured,NSW,"wollongong, bellambi jetty",-34.3676,150.9282,coastal,,wobbegong,Orectolobidae,"bite analysis, shark behaviour, geographical location",,,,provoked,enticed shark,1,fishing,,,,catch,,bit foot,,,foot,minor lacerations,male,,,,,,,,,,,,,1,,,,,,,,,,,,,,media outlet,illawarra mercury 26.2.1932,
